Stationcode,Locations,Lat,Lon,Capitalcity,State,Temperature,D.O,pH,Conductivity,B.O.D,Nitrate,Fecalcaliform,Totalcaliform,class,Unnamed: 15
1001,BEAS AT U/S MANALI,32.244947,77.19108,Shimla,HIMACHAL PRADESH,9.0,9.0,8.0,85,0.1,0.20,106,397.0,yes,
1002,BEAS AT D/S KULU,31.960582,77.114009,Shimla,HIMACHAL PRADESH,10.0,9.0,8.0,102,0.3,0.40,153,954.0,yes,
1003,BEAS AT D/S AUT,26.887893,75.811484,Shimla,HIMACHAL PRADESH,11.0,9.0,8.0,96,0.2,0.30,58,653.0,yes,
1004,BEAS AT U/S PANDON DAM,47.351943,19.633621,Shimla,HIMACHAL PRADESH,13.0,9.0,8.0,94,0.2,0.40,34,317.0,yes,
1005,BEAS AT EXIT OF TUNNEL DEHAL POWER HOUSE,25.992786,91.826111,Shimla,HIMACHAL PRADESH,14.0,10.0,8.0,112,0.2,0.50,213,1072.0,yes,
1550,U/S MANDI,31.708165,76.931367,Shimla,HIMACHAL PRADESH,16.0,9.0,8.0,117,0.2,0.50,100,722.0,yes,
1006,BEAS AT D/S MANDI,31.708165,76.931367,Shimla,HIMACHAL PRADESH,16.0,9.0,8.0,155,0.5,0.70,445,1855.0,yes,
2604,BEAS AT D/S JAISINGHPUR,31.899643,76.597945,Shimla,HIMACHAL PRADESH,19.0,8.0,8.0,211,0.5,0.50,7,72.0,yes,
1007,BEAS AT D/S ALAMPUR,15.884349,78.119382,Shimla,HIMACHAL PRADESH,19.0,8.0,8.0,202,0.6,0.40,9,123.0,yes,
1008,BEAS AT D/S DEHRAGOPIPUR,31.881756,76.214645,Shimla,HIMACHAL PRADESH,19.0,8.0,8.0,280,0.7,1.10,10,157.0,yes,
1009,BEAS AT D/S PONG DAM,31.976579,76.050795,Shimla,HIMACHAL PRADESH,20.0,8.0,8.0,177,0.5,0.40,7,92.0,yes,
1693,BEAS AT TALWARA H/W,31.931129,75.894059,Chandigarh, PUNJAB,15.0,8.0,8.0,285,0.0,0.80,3,50.0,yes,
1694,U/S PATHANKOT,32.264338,75.642112,Chandigarh, PUNJAB,18.0,7.0,8.0,316,1.0,1.60,95,500.0,yes,
1695,U/S PATHANKOT,32.264338,75.642112,Chandigarh, PUNJAB,15.0,7.0,7.0,334,1.0,2.00,158,600.0,yes,
1010,"BEAS AT MIRTHAL BRIDGE, GURDASPUR",31.940009,75.247906,Chandigarh, PUNJAB,15.0,8.0,8.0,177,0.5,0.60,66,662.0,yes,
1294,BEAS AT 1KM.D/S OF EFFL. DISH. POINT AT MUKERIAN,31.940009,75.247906,Chandigarh, PUNJAB,14.0,7.0,7.0,334,1.0,1.00,370,738.0,yes,
1011,BEAS AT G.T.ROAD UNDER BDG. NEAR KAPURTHALA,31.37148,75.393681,Chandigarh, PUNJAB,14.0,7.0,7.0,317,0.8,1.80,133,567.0,yes,
1696,U/S GOINDWAL,31.36384,75.137025,Chandigarh, PUNJAB,16.0,7.0,7.0,310,1.0,2.00,180,650.0,yes,
1012,BEAS AT 100M D/S INDUST. DISCH. GOINDWAL ,31.36384,75.137025,Chandigarh, PUNJAB,17.0,7.0,7.0,320,0.7,1.80,185,725.0,yes,
1697,BEAS AT HARIKE,31.17,75.2,Chandigarh, PUNJAB,16.0,7.0,8.0,304,1.0,1.50,130,550.0,yes,
2601,BEAS AT D/S MANALI,32.244947,77.19108,Shimla,HIMACHAL PRADESH,10.0,9.0,8.0,74,0.2,0.40,189,889.0,yes,
2602,BEAS AT U/S KULLU,31.960582,77.114009,Shimla,HIMACHAL PRADESH,10.0,9.0,8.0,114,0.2,0.30,130,990.0,yes,
2603,BEAS AT D/S PANDOH DAM,47.351943,19.633621,Shimla,HIMACHAL PRADESH,14.0,9.0,8.0,96,0.2,0.50,62,606.0,yes,
1867,"SATLUJ B/C WITH RIVER SPITI AT KHAB, DISTT.KINNAUR",31.650958,78.475195,Shimla,HIMACHAL PRADESH,6.0,8.0,8.0,288,0.3,0.10,63,493.0,yes,
2611,SATLUJ AT KHAB,31.79903,78.64342,Shimla,HIMACHAL PRADESH,6.0,8.0,8.0,268,0.4,0.10,76,421.0,yes,
1389,SATLUJ AT NEPTHAZAKHAI,31.79903,78.64342,Shimla,HIMACHAL PRADESH,6.0,9.0,8.0,208,0.0,0.00,85,1020.0,yes,
1086,SATLUJ AT U/S RAMPUR,31.450777,77.631624,Shimla,HIMACHAL PRADESH,7.0,8.0,8.0,209,0.6,0.30,126,846.0,yes,
1087,SATLUJ AT D/S RAMPUR,31.450777,77.631624,Shimla,HIMACHAL PRADESH,7.0,8.0,8.0,219,0.7,0.20,204,857.0,yes,
1013,SATLUJ AT U/S TATAPANI,31.24879,77.089542,Shimla,HIMACHAL PRADESH,8.0,8.0,8.0,355,0.4,0.30,89,950.0,yes,
1014,SATLUJ AT U/S SLAPPER,31.412255,76.852727,Shimla,HIMACHAL PRADESH,14.0,10.0,8.0,225,0.2,0.60,159,1586.0,yes,
1015,SATLUJ AT D/S SLAPPER,31.412255,76.852727,Shimla,HIMACHAL PRADESH,14.0,10.0,8.0,214,0.5,0.70,207,1606.0,yes,
1016,SATLUJ AT D/S BHAKHRA,31.384426,76.477998,Shimla,HIMACHAL PRADESH,17.0,9.0,8.0,202,0.5,0.30,14,59.0,yes,
1017,"SATLUJ AT 100M U/S OF HEADWORKS, NANGAL",31.381038,76.381092,Chandigarh, PUNJAB,20.0,8.0,8.0,272,2.7,1.90,305,703.0,yes,
1018,"SATLUJ AT 100M D/S ,NANGAL",31.381038,76.381092,Chandigarh, PUNJAB,20.0,8.0,8.0,272,2.7,1.90,305,703.0,yes,
1293,SATLUJ AT 1 KM. D/S OF ZENITH,30.918402,75.834376,Chandigarh, PUNJAB,22.0,7.0,8.0,442,11.0,5.30,1275,4150.0,yes,
1814,SATLUJ AT D/S KIRATPUR SAHIB,31.184964,76.569052,Chandigarh, PUNJAB,21.0,7.0,7.0,279,2.0,2.00,178,503.0,yes,
1019,SATLUJ AT U/S HEAD WORKS ROPAR,30.965917,76.523023,Chandigarh, PUNJAB,21.0,7.0,7.0,336,3.3,3.30,637,9000.0,yes,
1380,SATLUJ AT D/S NFL,31.965917,76.523023,Chandigarh, PUNJAB,21.0,7.0,8.0,288,2.4,2.00,433,803.0,yes,
1690,U/S BUDHA NALLAH (UPPER),25.653498,93.345482,Chandigarh, PUNJAB,22.0,7.0,7.0,284,2.0,4.00,12975,23625.0,yes,
1020,"SATLUJ AT 100M D/S BUDHA NALA CONFL.,LUDHIANA",30.900965,75.857276,Chandigarh, PUNJAB,22.0,4.0,7.0,388,22.0,12.00,29000,64000.0,yes,
1021,"SATLUJ AT BOAT BDG. DHARMKOTNAKODAR ROAD, JALANDHAR",31.326015,75.576183,Chandigarh, PUNJAB,23.0,6.0,7.0,326,2.7,6.00,2500,8375.0,yes,
1381,SATLUJ AT D/S EAST BASIN,31.326015,75.576183,Chandigarh, PUNJAB,15.0,4.0,7.0,556,5.0,5.00,22000,40333.0,yes,
1691,U/S HUSSANIWALA - H/W FEROZEPUR,30.968965,74.574748,Chandigarh, PUNJAB,23.0,7.0,7.0,279,2.5,3.00,95,500.0,yes,
1692,D/S HUSSANIWALA-H/W FEROZEPUR,30.968965,74.574748,Chandigarh, PUNJAB,23.0,7.0,7.0,283,2.0,3.00,105,600.0,yes,
1022,"SATLUJ AT BRIDGE HARIKE, AMRITSAR",31.633979,74.872264,Chandigarh, PUNJAB,18.0,5.0,7.0,494,3.0,2.70,403,950.0,yes,
1088,RAVI AT U/S MADHOPUR,32.365289,75.597287,Shimla,HIMACHAL PRADESH,18.0,8.0,8.0,155,0.5,0.50,9,80.0,yes,
1089,RAVI AT U/S CHAMBA,32.553363,76.125808,Shimla,HIMACHAL PRADESH,11.0,9.0,8.0,141,0.5,0.40,6,90.0,yes,
2614,RAVI AT AT CHAMERA RESERVOIR,32.597574,75.985873,Shimla,HIMACHAL PRADESH,15.0,9.0,8.0,158,0.5,0.40,7,106.0,yes,
2615,RAVI AT AT D/S CHAMERA III HEP,32.597574,75.985873,Shimla,HIMACHAL PRADESH,10.0,9.0,8.0,137,0.4,0.30,4,47.0,yes,
2613,RAVI AT D/S OF CHAMBA TOWN,32.553363,76.125808,Shimla,HIMACHAL PRADESH,11.0,10.0,8.0,190,0.5,0.60,9,169.0,yes,
1097,"RAVI AT U/S OF MADHOPUR HEADWORKS,GURDASPUR",31.940009,75.247906,Chandigarh, PUNJAB,14.0,8.0,8.0,167,0.7,0.70,10,50.0,yes,
1290,PARVATI BEFORE CONF. TO RIVER BEAS,31.940009,75.247906,Shimla,HIMACHAL PRADESH,10.0,9.0,8.0,84,0.2,0.30,125,909.0,yes,
2605,PARVATI AT U/S MANIKARAN,32.026795,77.351106,Shimla,HIMACHAL PRADESH,7.0,9.0,8.0,65,0.1,0.30,27,217.0,yes,
2606,PARVATI AT D/S MANIKARAN,32.026795,77.351106,Shimla,HIMACHAL PRADESH,8.0,9.0,8.0,62,0.2,0.30,43,353.0,yes,
1090,LARGI AT D/S,32.026795,77.351106,Shimla,HIMACHAL PRADESH,11.0,9.0,8.0,101,0.2,0.40,53,553.0,yes,
1551,"SIRSA , U/S SITOMAJRI NALLAHGARH",31.044559,76.70479,Shimla,HIMACHAL PRADESH,20.0,8.0,8.0,364,2.1,1.30,26,69.0,yes,
1552,"SIRSA , D/S NALAGARH BRIDGE",31.044559,76.70479,Shimla,HIMACHAL PRADESH,24.0,9.0,8.0,622,2.0,0.80,23,75.0,yes,
1868,SIRSA AT D/S NALAGARH DISTT. SOLAN,30.904486,77.096736,Shimla,HIMACHAL PRADESH,24.0,8.0,8.0,583,1.3,1.20,30,86.0,yes,
1869,SWAN AT D/S NANGAL DISTT. UNA,31.886598,76.018882,Shimla,HIMACHAL PRADESH,24.0,8.0,8.0,443,1.2,1.00,14,116.0,yes,
2616,SIUEL AT D/S SURGANI,31.886598,76.018882,Shimla,HIMACHAL PRADESH,13.0,9.0,8.0,155,0.4,0.50,6,58.0,yes,
1307,CHUNT KOL * (MAULANA AZAD BRIDGE),34.073949,74.818182,Jammu,JAMMU & KASHMIR,9.0,6.0,8.0,209,5.0,1.00,,,yes,
2607,SUKETI KHAD  AT D/S MANDI,31.708165,76.931367,Shimla,HIMACHAL PRADESH,19.0,8.0,8.0,233,1.1,0.90,773,2327.0,yes,
2608,BINWA AT D/S PAPROLA/BAIJNATH,32.052833,76.634051,Shimla,HIMACHAL PRADESH,19.0,8.0,8.0,99,0.5,0.50,11,100.0,yes,
2609,NEUGAL AT D/S THURAL,31.924439,76.458478,Shimla,HIMACHAL PRADESH,21.0,8.0,8.0,129,0.4,0.60,6,113.0,yes,
2610,SPITI AT KHAB,31.79903,78.64342,Shimla,HIMACHAL PRADESH,5.0,8.0,8.0,197,0.2,0.10,39,252.0,yes,
2612,BASPA AT U/S RESERVOIR BASPA PROJECT,31.487079,78.180887,Shimla,HIMACHAL PRADESH,5.0,8.0,8.0,136,0.3,0.10,25,174.0,yes,
1306,"GAWKADAL, SRG *(SHERGHARI, SRG)",34.074962,74.80899,Jammu,JAMMU & KASHMIR,9.0,8.0,8.0,184,4.0,1.00,,,yes,
1304,JHELAM AT ANANTNAG D/S,33.731125,75.148701,Jammu,JAMMU & KASHMIR,13.0,8.0,8.0,240,2.0,1.00,,,yes,
1410,"JHELAM AT DALAGATE (INLET), SRINAGAR",34.083671,74.797282,Jammu,JAMMU & KASHMIR,8.0,8.0,7.0,152,5.0,1.00,,,yes,
1411,JHELAM AT CHATTABAL WEIR (OUTLET),34.090375,74.784955,Jammu,JAMMU & KASHMIR,8.0,6.0,8.0,172,5.0,1.00,,,yes,
1491,BHAGIRATHI AT GANGOTRI ,30.994695,78.93984,Dehradun,UTTARAKHAND,5.5,8.5,7.9,95,,0.15,,,yes,
1484,ALKANANDA B/C MANDAKINI AT RUDRA PRAYAG,30.284414,78.981141,Dehradun,UTTARAKHAND,16.6,9.6,8.0,145,,0.08,2500,9300.0,no,
1485,MANDAKINI B/C ALKALNADA AT RUDRAPRAYAG ,30.284414,78.981141,Dehradun,UTTARAKHAND,16.6,8.8,8.0,115,,0.08,1800,25150.0,no,
1486,ALKANANDA A/C MANDAKINI AT RUDRAPRAYAG ,30.284414,78.981141,Dehradun,UTTARAKHAND,17.6,9.3,8.1,150,0.7,0.08,16650,46000.0,no,
1487,ALKANANDA B/C TO BHAGIRATHI AT DEVPRAYAG,30.145947,78.599293,Dehradun,UTTARAKHAND,18.4,9.1,8.1,141,1.2,0.09,5100,9650.0,no,
1488,BHAGIRATHI B/C WITH ALAKNANDA AT DEVPRAYAG,30.145947,78.599293,Dehradun,UTTARAKHAND,18.3,8.6,8.0,135,1.0,0.06,650,3200.0,no,
1489,ALKANANDA A/C WITH BHAGIRATHI AT DEVPRAYAG,30.145947,78.599293,Dehradun,UTTARAKHAND,18.4,8.7,8.1,132,0.7,0.08,27650,67000.0,no,
1060,GANGA AT RISHIKESH U/S,30.086928,78.267612,Dehradun,UTTARAKHAND,17.1,9.1,7.7,121,1.7,0.08,,99.0,yes,
2725,A/C R.SONG NR SATYANARAYAN TEMPLE D/S RAIWALA,30.031773,78.209476,Dehradun,UTTARAKHAND,21.9,7.8,7.7,305,4.5,0.08,800,4467.0,yes,
1061,GANGA AT HARIDWAR D/S,29.945691,78.164248,Dehradun,UTTARAKHAND,20.0,6.7,7.6,196,5.6,0.08,1150,50917.0,yes,
2727,UPPER GANGA RIVER D/S ROORKEE,29.854263,77.888,Dehradun,UTTARAKHAND,19.4,8.3,7.8,157,2.5,0.08,8,377.0,yes,
1062,GANGA AT GARHMUKTESHWAR,28.789221,78.082308,Lucknow,UTTAR PRADESH,19.6,8.2,7.4,221,3.4,0.50,1162,2497.0,yes,
2488,"GANGA U/S, ANOOPSHAHAR",28.354086,78.267548,Lucknow,UTTAR PRADESH,18.3,8.4,7.4,196,2.8,0.21,673,1377.0,yes,
2489,"GANGA D/S, ANOOPSHAHAR",28.354086,78.267548,Lucknow,UTTAR PRADESH,18.5,8.3,7.6,230,3.6,0.23,783,1713.0,yes,
1145,GANGA AT NARORA (BULANDSAHAR),28.196777,78.381378,Lucknow,UTTAR PRADESH,19.2,8.7,7.5,189,3.1,0.23,420,850.0,yes,
2490,"AT KACHHLA GHAT, ALIGARH",27.897394,78.088013,Lucknow,UTTAR PRADESH,20.3,8.3,7.4,206,3.7,0.28,840,1743.0,yes,
1063,GANGA AT KANNAUJ U/S (RAJGHAT),27.051416,79.913673,Lucknow,UTTAR PRADESH,25.6,7.9,8.0,327,4.5,2.25,3042,10075.0,yes,
1066,GANGA AT KANNAUJ D/S,27.051416,79.913673,Lucknow,UTTAR PRADESH,25.6,7.8,8.0,324,5.5,2.25,3508,20208.0,no,
1146,GANGA AT BITHOOR (KANPUR),26.605735,80.269765,Lucknow,UTTAR PRADESH,25.6,8.7,8.2,510,4.0,1.70,1700,7750.0,no,
1067,GANGA AT KANPUR U/S (RANIGHAT),26.449923,80.331874,Lucknow,UTTAR PRADESH,25.8,8.6,8.2,316,4.3,2.03,6667,31992.0,no,
1068,AT KANPUR D/S (JAJMAU PUMPING STATION),26.605735,80.269765,Lucknow,UTTAR PRADESH,25.8,6.9,8.0,381,8.4,2.77,38942,151333.0,yes,
1147,GANGA AT DALMAU (RAI BAREILLY),26.068236,81.061666,Lucknow,UTTAR PRADESH,20.7,7.8,7.9,281,3.8,0.85,5300,7775.0,yes,
2498,"GANGA AT KALA KANKAR, RAEBARELI",26.23453,81.240869,Lucknow,UTTAR PRADESH,20.9,7.7,7.8,261,3.8,0.84,4980,7510.0,yes,
1046,AT ALLAHABAD (RASOOLABAD),26.383675,81.869558,Lucknow,UTTAR PRADESH,25.6,7.2,8.0,387,4.2,1.71,3358,7750.0,no,
2487,"GANGA AT KADAGHAT, ALLAHABAD",30.970214,77.105367,Lucknow,UTTAR PRADESH,25.7,7.6,7.9,374,3.6,1.65,2492,4167.0,yes,
1049,AT ALLAHABAD D/S (SANGAM),25.435801,81.846311,Lucknow,UTTAR PRADESH,26.2,7.2,8.0,450,4.0,1.61,3408,8583.0,yes,
2485,"GANGA U/S, VINDHYACHAL, MIRZAPUR",25.133699,82.564434,Lucknow,UTTAR PRADESH,27.4,8.7,8.0,387,3.7,1.96,332,1995.0,no,
2486,"GANGA D/S, MIRZAPUR",25.133699,82.564434,Lucknow,UTTAR PRADESH,27.1,7.7,7.8,396,3.6,2.29,2377,5708.0,yes,
1070,AT VARANASI U/S (ASSIGHAT),25.317645,82.973914,Lucknow,UTTAR PRADESH,22.3,7.6,7.6,250,3.9,1.71,8000,13000.0,yes,
1071,AT VARANASI D/S (MALVIYA BRIDGE),25.317645,82.973914,Lucknow,UTTAR PRADESH,22.8,7.1,8.0,272,8.0,1.71,40000,58000.0,yes,
1073,GANGA AT TRIGHAT (GHAZIPUR),26.8725184,80.9834952,Lucknow,UTTAR PRADESH,23.8,7.3,8.0,257,4.3,1.71,13000,19667.0,yes,
1074,"GANGA AT BUXAR,BIHAR",26.8725184,80.9834952,Patna,BIHAR,24.4,8.4,8.2,345,2.8,1.71,3122,6867.0,no,
2551,"GANGA AT BUXAR, RAMREKHAGHAT",26.8725184,80.9834952,Patna,BIHAR,23.7,8.4,8.2,357,2.9,1.71,7500,22000.0,no,
1077,"GANGA AT KHURJI, PATNA U/S",25.6331345,85.11292,Patna,BIHAR,25.1,8.4,8.2,327,2.7,1.71,2767,7044.0,no,
2556,"AT INDRAPURI, DEHRI ON SONE",23.2558124,77.460158,Patna,BIHAR,23.2,8.3,7.8,259,2.7,1.71,1188,2338.0,yes,
2564,"AT CONFL. SONE DORIGANJ, CHAPRA",25.7354939,84.83139,Patna,BIHAR,22.3,8.5,7.7,298,2.8,1.71,1922,3933.0,yes,
2552,DARBHANGA GHAT AT PATNA,25.5940947,25.5940947,Patna,BIHAR,24.1,8.4,8.3,334,2.9,1.71,9000,23111.0,no,
1079,AT PATNA D/S (GANGA BRIDGE),25.5940947,25.5940947,Patna,BIHAR,24.4,8.4,8.2,350,2.9,1.71,5667,18778.0,no,
2555,"GANGA AT PUNPUN, PATNA",25.5504086,85.118166,Patna,BIHAR,24.6,7.3,7.8,413,2.7,1.71,1589,3667.0,yes,
2553,GANGA AT FATUHA,25.5110487,85.3084516,Patna,BIHAR,24.6,8.4,8.3,327,2.8,1.71,2675,7313.0,no,
1817,GANGA AT MOKAMA (U/S),25.3961861,85.917677,Patna,BIHAR,25.0,8.0,8.0,375,2.7,1.71,2575,6588.0,no,
1815,GANGA AT MOKAMA (D/S),25.3961861,85.917677,Patna,BIHAR,24.6,7.9,8.0,375,3.0,1.71,7638,22000.0,yes,
1818,GANGA AT MUNGER,25.374756,86.473525,Patna,BIHAR,24.8,7.8,8.0,345,2.7,1.71,2178,4967.0,yes,
2554,"GANGA AT SULTANGANJ, BHAGALPUR",25.2401294,86.7404394,Patna,BIHAR,24.6,7.8,7.9,363,2.7,1.71,1943,3371.0,yes,
1819,GANGA AT BHAGALPUR,25.2401294,86.7404394,Patna,BIHAR,24.9,7.7,7.9,368,2.8,1.71,3686,22743.0,yes,
1816,GANGA AT KAHALGAON,25.2627223,87.2366237,Patna,BIHAR,25.0,7.9,8.0,344,2.8,1.71,5611,11422.0,yes,
1080,GANGA AT BAHARAMPORE ,22.7642,88.29112,Kolkata,WEST BENGAL,26.3,8.3,7.8,294,2.2,0.39,105364,140545.0,yes,
2511,"NABADIP ON GANGA,GHOSHPARA NEAR MONIPURGHAT",22.645211,88.335526,Kolkata,WEST BENGAL,26.0,8.5,7.8,290,2.1,0.34,13573,21973.0,yes,
2506,"TRIBENI ON GANGA, NR BURNING GHAT",22.9901287,88.3943282,Kolkata,WEST BENGAL,27.8,8.2,7.9,289,1.7,0.26,3064,4755.0,yes,
1054,GANGA AT PALTA ,22.7858974,88.3712795,Kolkata,WEST BENGAL,27.0,7.7,7.8,287,2.1,0.43,84667,128333.0,yes,
1472,GANGA AT SERAMPORE ,22.748331,88.338505,Kolkata,WEST BENGAL,28.3,7.8,7.9,286,1.9,0.26,66667,97917.0,yes,
1053,GANGA AT DAKSHINESHWAR ,22.6574479,88.3639593,Kolkata,WEST BENGAL,26.9,7.8,7.8,306,4.0,0.30,270333,653083.0,yes,
1471,GANGA AT HOWRAH-SHIVPUR ,22.5682458,88.3196614,Kolkata,WEST BENGAL,27.0,7.3,7.8,301,4.0,0.27,130750,223667.0,yes,
1470,GANGA AT GARDEN REACH ,22.5334555,88.2996293,Kolkata,WEST BENGAL,26.6,6.8,7.8,316,4.1,0.29,164833,247167.0,yes,
1052,GANGA AT ULUBERIA ,22.4744363,88.1000377,Kolkata,WEST BENGAL,27.1,5.9,7.8,326,2.8,0.38,32500,68833.0,yes,
1469,GANGA AT DIAMOND HARBOUR ,22.1987268,88.2022875,Kolkata,WEST BENGAL,26.8,7.1,7.9,3186,2.3,0.34,20333,30667.0,yes,
1492,YAMUNA AT YAMUNOTRI,31.0139859,78.4599554,Dehradun,UTTARAKHAND,6.0,8.4,7.6,74,,0.20,,,yes,
1493,YAMUNA AT HANUMANCHATTI,30.694771,79.514147,Dehradun,UTTARAKHAND,10.1,9.0,7.8,111,4.0,0.20,,,yes,
1494,YAMUNA AT U/S OF LAKHWAR DAM,30.517983,77.948925,Dehradun,UTTARAKHAND,18.8,8.3,7.8,171,0.9,0.06,275,1255.0,yes,
1490,YAMUNA AT U/S DAK PATTHAR,30.4971735,77.8019775,Dehradun,UTTARAKHAND,19.3,7.7,7.8,185,2.7,0.07,4865,4015.0,yes,
1553,"YAMUNA , U/S PAONTA SAHIB",30.445283,77.602056,Shimla,HIMACHAL PRADESH,20.5,8.0,7.6,482,1.1,0.19,1616,11596.0,yes,
1554,"YAMUNA , D/S PAONTA SAHIB",30.445283,77.602056,Shimla,HIMACHAL PRADESH,21.7,8.2,7.8,321,1.1,0.34,10,16.0,yes,
1117,YAMUNA AT HATHNIKUND ,30.3145239,77.5831653,Chandigarh,HARYANA,20.6,9.1,7.8,273,1.4,1.38,31218,133350.0,yes,
1496,"YAMUNA AT KALANAUR,  YAMUNA NAGAR",28.831237,76.39556,Chandigarh,HARYANA,24.7,7.5,7.9,372,1.1,1.38,27020,150630.0,yes,
1119,YAMUNA AT SONEPAT,28.993082,77.015073,Chandigarh,HARYANA,24.5,6.9,7.9,438,2.3,1.38,69933,266611.0,yes,
1120,YAMUNA AT WAZIRABAD,28.7336221,77.2190227,New Delhi,DELHI,24.0,7.8,8.0,594,2.2,1.38,9125,45764.0,no,
1121,YAMUNA AT NIZAMUDDIN,28.5902107,77.2499367,New Delhi,DELHI,23.7,0.8,7.8,1154,15.5,1.38,42000000,250000000.0,yes,
1375,YAMUNA AT OKHLA BRIDGE (INLET OF AGRA CANAL),28.5623948,77.2916728,New Delhi,DELHI,23.7,0.5,7.8,969,13.0,1.38,110000000,190000000.0,yes,
1497,YAMUNA AT MAZAWALI,27.5863838,77.7004931,Lucknow,UTTAR PRADESH,26.1,1.6,7.5,991,14.5,1.38,3283222,25000000.0,yes,
2495,"YAMUNA AT KESIGHAT, VRINDAVAN",27.5863838,77.7004931,Lucknow,UTTAR PRADESH,13.0,2.1,6.9,,14.4,1.38,21000,70000.0,yes,
1123,YAMUNA AT MATHURA U/S,27.4924134,77.673673,Lucknow,UTTAR PRADESH,28.1,3.8,7.7,,11.4,1.38,718000,5877333.0,yes,
2494,"YAMUNA AT VISHRAMGHAT, MATHURA",27.5043035,77.6870131,Lucknow,UTTAR PRADESH,13.0,0.8,7.0,,15.4,1.38,37000,70000.0,yes,
1124,YAMUNA AT MATHURA D/S,27.4924134,77.673673,Lucknow,UTTAR PRADESH,27.6,4.8,7.8,1058,8.8,1.38,2374000,14000000.0,yes,
1125,YAMUNA AT AGRA U/S,27.1766701,78.0080745,Lucknow,UTTAR PRADESH,26.0,4.3,7.8,1070,7.0,1.38,284900,694300.0,yes,
1126,YAMUNA AT D/S OF AGRA,27.1766701,78.0080745,Lucknow,UTTAR PRADESH,28.4,3.1,7.9,1142,11.0,1.38,6380100,23000000.0,yes,
2493,RIVER YAMUNA AT SHAHPUR,26.7709618,83.3909575,Lucknow,UTTAR PRADESH,15.0,3.8,7.3,193,11.8,1.38,37000,38000.0,yes,
1498,YAMUNA AT BATESWAR,26.9350608,78.5420306,Lucknow,UTTAR PRADESH,28.1,6.9,8.0,1126,8.5,1.38,223780,753800.0,no,
1127,YAMUNA AT ETAWAH,26.8117116,79.0046898,Lucknow,UTTAR PRADESH,27.7,8.8,8.2,1061,8.1,1.38,99030,298200.0,no,
1499,"YAMUNA AT JUHIKA B/C WITH CHANBAL, ETAWAH",26.8117116,79.0046898,Lucknow,UTTAR PRADESH,27.2,9.7,8.2,744,4.2,1.38,137630,417900.0,no,
1129,YAMUNA AT ALLAHABAD,25.4358011,81.846311,Lucknow,UTTAR PRADESH,21.9,7.4,7.5,433,2.6,1.39,3195,13416.0,yes,
1069,YAMUNA AT ALLAHABAD D/S (BALUA GHAT),25.4358011,81.846311,Lucknow,UTTAR PRADESH,26.7,6.5,7.9,610,2.5,1.33,1450,2833.0,yes,
2724,"SUSWA RIVER AT MOTHRAWALA, DEHRADUN",30.2617154,78.0338077,Dehradun,UTTARAKHAND,24.6,3.9,7.5,733,23.0,0.70,145000,112033.0,yes,
2728,GOLA RIVER AT HALDWANI,29.2182644,79.5129766,Dehradun,UTTARAKHAND,13.5,9.1,7.5,255,2.1,,,,yes,
1064,RAMGANGA AT KANNAUJ (BEFORE CONF.),27.0514156,79.913673,Lucknow,UTTAR PRADESH,25.7,7.1,7.8,430,5.9,3.79,2992,11775.0,yes,
2497,"KALINADI (EAST) AT KHARKHODA-PARIKSHIT GARH RD, VILL. KOL, MEERUT",27.051099,79.913404,Lucknow,UTTAR PRADESH,21.8,,7.6,1733,86.0,5.52,260000,329167.0,yes,
1480,KALINADI (EAST) AT U/S OF GULAOTHI TOWN IN BULANDSAHAR,28.5902291,77.7936081,Lucknow,UTTAR PRADESH,,,7.6,1532,100.0,0.70,230000000,550000000.0,yes,
1065,KALINADI (EAST) AT KANNAUJ (BEFORE CONF.),27.0514156,79.913673,Lucknow,UTTAR PRADESH,25.6,6.6,7.9,406,7.0,3.72,3567,20842.0,yes,
2482,"VARUNA AT RAMESHWAR, VARANASI",25.385014,82.853966,Lucknow,UTTAR PRADESH,22.8,7.5,7.8,252,4.1,,10500,15500.0,yes,
2483,VARUNA B/C WITH RIVER GANGA AT VARANASI,25.385014,82.853966,Lucknow,UTTAR PRADESH,22.8,5.5,8.4,287,23.0,,74500,102000.0,no,
1361,SAI AT UNNAO AFTER DRAIN OUTFALL,26.5393449,80.4878195,Lucknow,UTTAR PRADESH,23.8,8.8,7.9,399,2.7,1.70,1093,2708.0,yes,
2484,"SAI AT JALALPUR, JAUNPUR",25.8080177,82.6145761,Lucknow,UTTAR PRADESH,23.0,7.4,7.7,246,4.1,,11000,14000.0,yes,
1350,GOMTI AT SITAPUR U/S AT WATER INTAKE,27.5839037,80.6663559,Lucknow,UTTAR PRADESH,25.0,8.5,7.9,355,3.1,1.47,444,1560.0,yes,
1351,GOMTI AT LUCKNOW U/S AT WATER INTAKE POINT,26.8466937,80.9461659,Lucknow,UTTAR PRADESH,27.8,7.9,7.9,355,3.6,1.71,1560,2950.0,yes,
1352,GOMTI AT LUCKNOW D/S,26.8466937,80.9461659,Lucknow,UTTAR PRADESH,27.8,3.6,7.4,427,7.5,3.74,70800,103367.0,yes,
1353,GOMTI AT JAUNPUR D/S,25.7490034,82.6987001,Lucknow,UTTAR PRADESH,23.1,7.3,7.9,255,4.3,,17000,21000.0,yes,
1072,GOMTI AT VARANASI,25.3176452,82.9739144,Lucknow,UTTAR PRADESH,22.8,7.5,7.7,244,4.0,,13000,17000.0,yes,
2491,"RAPTI AT RAJGHAT, GORAKHPUR",26.7459763,83.3529247,Lucknow,UTTAR PRADESH,24.0,7.5,8.1,387,3.6,0.55,158,363.0,no,
1363,"RAPTI A/C R. HONIN NR. DOMINGARH RLY BDG, GORAKHPUR",27.1937377,83.1747783,Lucknow,UTTAR PRADESH,23.5,7.7,8.2,370,2.8,0.39,75,198.0,no,
1354,SARYU AT AYODHYA AT MAIN BATHING GHAT,26.7879633,82.1985518,Lucknow,UTTAR PRADESH,18.5,9.1,7.7,226,2.6,0.62,4091,6509.0,yes,
1355,GHAGHARA AT DEORIA D/S,26.4862373,83.7838213,Lucknow,UTTAR PRADESH,23.8,7.7,8.2,421,2.8,0.44,118,295.0,no,
2492,"GHAGHRA AT BARHALGANJ, GORAKHPUR",26.2845823,83.506611,Lucknow,UTTAR PRADESH,23.5,7.6,8.1,425,3.0,0.50,153,328.0,no,
1076,GHAGHARA NEAR CHAPRA,25.7795649,84.7498885,Patna,BIHAR,21.1,8.8,7.8,297,2.6,,1229,2543.0,yes,
1359,RIHAND AT RENUKUT U/S,24.2182429,83.0346073,Lucknow,UTTAR PRADESH,26.2,7.6,7.7,178,1.4,0.82,1100,1800.0,yes,
1360,RIHAND AT RENUKUT D/S,24.2182429,83.0346073,Lucknow,UTTAR PRADESH,26.3,7.2,7.7,185,2.1,0.89,1300,2142.0,yes,
1075,SONE AT KOELWAR,25.5792683,84.7915998,Patna,BIHAR,23.2,8.1,7.9,251,2.6,1.38,1056,2300.0,yes,
1078,"GANDAK AT SONEPUR, PATNA (BEFORE CONFL.)",25.6983676,85.1660825,Patna,BIHAR,21.7,8.5,7.8,262,2.6,1.38,989,1844.0,yes,
2568,"GANDAK AT REWAGHAT, MUJAFFARPUR",25.9857298,85.042994,Patna,BIHAR,24.0,7.0,8.7,343,2.5,1.38,500,1100.0,no,
2570,GANDAK AT SAMASTIPUR ROAD BRIDGE,25.8629679,85.7810263,Patna,BIHAR,23.5,6.9,7.7,290,2.6,1.38,1000,2300.0,yes,
2575,"SIKRAHNA RIVER AT LAL PARSE, BITTIAH",26.8028048,84.5169756,Patna,BIHAR,24.3,7.8,8.1,330,2.7,1.38,1200,2733.0,no,
1820,SIKRANA AT CHANPATIYA,26.9445192,84.5379454,Patna,BIHAR,22.7,7.9,8.2,331,2.7,1.38,1267,2600.0,no,
2562,"BURHI GANDAK AT AKHARAGHAT, MUZAFFARPUR",26.1337646,85.3876454,Patna,BIHAR,24.7,7.6,8.0,480,2.7,1.38,1033,2500.0,no,
2558,HARBORA RIVER AT NARKATIAGANJ,27.1059249,84.4645183,Patna,BIHAR,24.0,6.5,8.0,469,5.8,1.38,2167,5067.0,yes,
2567,KAMALA RIVER AT BENIPATTI (MADHUBANI),26.4465698,85.9074525,Patna,BIHAR,24.0,7.6,7.6,218,2.7,1.38,800,1750.0,yes,
2569,KAMALA RIVER AT DARBHANGA,26.111868,85.896003,Patna,BIHAR,24.0,7.5,7.5,214,2.7,1.38,1050,1950.0,yes,
2563,"MANUSMAR RIVER AT RIGA, SITAMARHI",26.6499077,85.4298197,Patna,BIHAR,24.3,5.8,8.0,368,5.3,1.38,1067,3167.0,yes,
2565,KOSHI RIVER AT KURSHELA AT KATIHAR,25.552048,87.57186,Patna,BIHAR,28.0,6.5,7.8,286,2.7,1.38,1050,2400.0,yes,
2566,KOSHI RIVER AT MADHEPURA,25.8674343,86.9423801,Patna,BIHAR,26.7,6.8,7.6,375,2.7,1.38,1600,2967.0,yes,
1821,DAHA AT SIWAM,26.2196205,84.3566593,Patna,BIHAR,24.7,7.6,7.8,361,2.7,1.38,900,2100.0,yes,
2560,D/S DAHA RIVER AT SASAMUSA,26.5248393,84.3581483,Patna,BIHAR,22.0,7.6,7.4,445,2.7,1.38,4267,10667.0,yes,
2561,"DAHA RIVER AT ITWA BRIDGE, SIWAN",26.2196205,84.3566593,Patna,BIHAR,24.0,8.0,8.0,391,2.7,1.38,1433,2733.0,yes,
1823,DHOUS AT MADHUBANI,26.4627955,86.1751759,Patna,BIHAR,25.0,6.8,7.8,212,2.9,1.38,1700,5000.0,yes,
1824,FARMAR AT JOGBANI,26.3991195,87.2568579,Patna,BIHAR,26.5,7.0,7.6,332,3.0,1.38,900,1950.0,yes,
2559,RAM REKHA RIVER AT HARINAGAR,26.3991195,87.2568579,Patna,BIHAR,24.0,5.8,7.9,468,6.9,1.38,4600,11333.0,yes,
1822,SIRSA AT RUXOL,26.3991195,87.2568579,Patna,BIHAR,25.0,2.5,7.6,962,9.5,1.38,9000,21333.0,yes,
1510,TONS RIVER,30.8919211,77.2103359,Shimla,HIMACHAL PRADESH,11.7,9.3,7.4,68,0.6,0.13,5,22.0,yes,
2620,ASHWANI AT U/S YASHWANT NAGAR,30.8919211,77.2103359,Shimla,HIMACHAL PRADESH,22.7,8.0,8.2,269,0.7,0.79,24,51.0,no,
2626,BATTA AT U/S PAONTA,30.445283,77.602056,Shimla,HIMACHAL PRADESH,21.4,8.3,7.7,324,1.2,0.31,9,17.0,yes,
2627,BATTA B/C TO YAMUNA,30.445283,77.602056,Shimla,HIMACHAL PRADESH,22.0,8.4,7.9,331,1.2,0.36,9,17.0,yes,
2621,GIRI AT D/S YASHWANT NAGAR,30.8919211,77.2103359,Shimla,HIMACHAL PRADESH,21.5,8.1,8.1,174,0.8,0.49,31,63.0,no,
2622,GIRI AT U/S CCI MINES,30.8919211,77.2103359,Shimla,HIMACHAL PRADESH,20.9,8.5,7.7,511,1.0,0.31,6,12.0,yes,
2623,GIRI D/S SATAUN,30.8919211,77.2103359,Shimla,HIMACHAL PRADESH,20.7,8.6,7.9,509,1.2,0.38,6,13.0,yes,
2617,PABBAR AT U/S DHAMBARI,31.1994153,77.745655,Shimla,HIMACHAL PRADESH,12.4,9.5,7.4,49,0.3,0.12,2,15.0,yes,
2618,PABBAR AT U/S ROHRU,31.1994153,77.745655,Shimla,HIMACHAL PRADESH,11.9,8.8,7.5,65,0.4,0.19,28,19.0,yes,
2619,PABBAR AT D/S SWARAKUDDU,31.0696572,77.8199313,Shimla,HIMACHAL PRADESH,11.3,9.4,7.5,68,0.5,0.12,4,10.0,yes,
1477,KALINADI AT U/S  MUZAFFAR NAGAR,29.4726817,77.7085091,Lucknow,UTTAR PRADESH,,,7.9,461,2.7,2.44,9500,141500.0,yes,
1478,KALINADI AT D/S MUZAFFAR NAGAR,29.4726817,77.7085091,Lucknow,UTTAR PRADESH,,,7.7,1253,222.0,2.24,77000000,670000000.0,yes,
1483,"HINDON A/C WITH R. KRISHNA & KALI NEAR BINAULI TOWN, MEERUT",28.9844618,77.7064136,Lucknow,UTTAR PRADESH,,,7.8,392,24.3,1.74,23000000,9150000.0,yes,
2496,"HINDON AT SARDHANA BUDHANA ROAD, VILLAGE BAPARSI, MEERUT",28.9844618,77.7064136,Lucknow,UTTAR PRADESH,20.4,,7.3,738,43.5,4.53,170000,227500.0,yes,
1358,HINDON AT GHAZIABAD D/S,28.9844618,77.7064136,Lucknow,UTTAR PRADESH,19.8,1.5,7.2,568,16.4,0.65,119364,174545.0,yes,
2107,"BETWA U/S, BEENA",23.3714266,79.0899245,Bhopal,MADHYA PRADESH,25.8,7.8,7.9,360,1.4,,,8.0,yes,
2108,"BETWA D/S, BEENA",23.3714266,79.0899245,Bhopal,MADHYA PRADESH,26.0,7.8,8.0,445,1.6,,,8.0,yes,
2119,"BETWA AT NAYAPUR D/S MANDIDEEP INDL. AREA NO.1, .RAISEN",23.1635108,77.4099383,Bhopal,MADHYA PRADESH,,,7.6,902,37.7,4.26,806,1183.0,yes,
2121,"BETWA NEAR ROAD BDG, BHOJPUR",23.099165,77.578419,Bhopal,MADHYA PRADESH,,10.6,7.6,634,4.1,1.28,6,146.0,yes,
2122,BETWA NEAR W/S INTAKE WELL POINT RAISEN,23.5251102,77.8081363,Bhopal,MADHYA PRADESH,,7.5,7.9,646,2.0,0.93,4,50.0,yes,
1614,"BETWA NEAR INTAKE POINT, VIDISHA",23.5251102,77.8081363,Bhopal,MADHYA PRADESH,36.0,7.8,7.9,436,3.4,1.35,3,58.0,yes,
2124,"BETWA AT CHARANTIRGHAT, VIDISHA",23.5251102,77.8081363,Bhopal,MADHYA PRADESH,35.5,7.2,7.9,643,3.3,4.37,12,934.0,yes,
2125,BETWA D/S AFTER MIXING BAIS AT VIDISHA,23.5251102,77.8081363,Bhopal,MADHYA PRADESH,35.0,7.1,8.1,734,3.9,1.89,8,512.0,no,
1735,GOVIND SAGAR,23.8268406,78.7376236,Lucknow,UTTAR PRADESH,25.5,7.2,8.3,183,1.7,0.00,2150,12250.0,no,
1356,BETWA B/C YAMUNA AT HAMIRPUR,27.1522901,80.8294746,Lucknow,UTTAR PRADESH,24.2,7.1,8.1,428,3.7,0.06,13467,30833.0,no,
2120,"KALIASOT NR RD BDG, MANDIDEEP",23.0987029,77.5050016,Bhopal,MADHYA PRADESH,,8.8,7.5,691,5.4,,7,70.0,yes,
1613,"KOLAR DAM WATER SUPPLY INTAKE WELL, DISTT. SEHORE",23.205012,77.085078,Bhopal,MADHYA PRADESH,37.0,8.1,7.7,375,1.9,0.46,7,65.0,yes,
1365,CHAMBAL AT NAGDA U/S (WATER INTAKE POINT) ,23.4601232,75.4119263,Bhopal,MADHYA PRADESH,28.4,6.6,7.7,416,2.5,1.23,,,yes,
1366,CHAMBAL AT NAGDA D/S,23.4601232,75.4119263,Bhopal,MADHYA PRADESH,28.9,5.6,7.4,5357,18.4,2.89,,,yes,
2955,"CHAMBAL ENTERING IN RAJASTHAN AT GANDHI SAGAR DAM, KOTA",24.7000766,75.552632,Jaipur,RAJASTHAN,27.5,5.5,8.2,368,1.3,0.23,3,10.0,no,
1418,"CHAMBAL AT GANDHI SAGAR DAM, RAMPURA",24.3150317,77.1553516,Bhopal,MADHYA PRADESH,25.8,7.4,7.4,380,2.0,0.60,,,yes,
1288,CHAMBAL AT KOTA U/S (INTAKE PT. NEAR BARRAGE),24.7000766,75.552632,Jaipur,RAJASTHAN,28.5,5.9,7.8,388,1.5,0.38,3,7.0,yes,
1289,CHAMBAL AT KOTA D/S,24.7000766,75.552632,Jaipur,RAJASTHAN,26.8,5.5,8.1,515,2.1,0.43,5,107.0,no,
1413,CHAMBAL AT RAMESHWARGHAT NR. SAWAIMADHOPUR,26.0377772,76.3521514,Jaipur,RAJASTHAN,26.0,5.6,8.0,473,1.0,0.62,3,6.0,yes,
1609,CHAMBAL AT DHOLPUR,26.6604023,77.9039189,Bhopal,MADHYA PRADESH,25.1,8.0,7.6,665,2.1,0.48,,,yes,
1376,CHAMBAL AT ETAWAH B/C YAMUNA,26.8117116,79.0046898,Lucknow,UTTAR PRADESH,27.6,9.2,8.3,572,1.8,,5240,15460.0,no,
1432,PARVATI NEAR VILLAGE BATAODAPAR,23.5024937,77.134135,Bhopal,MADHYA PRADESH,27.5,8.4,7.6,342,2.1,,,,yes,
1615,PARVATI NEAR INTAKE POINT PILLUKHEDI DISTT. RAJGARH,23.5024937,77.134135,Bhopal,MADHYA PRADESH,27.8,7.7,7.6,618,2.6,,,,yes,
2126,"PARVATI A/C OF VINDHYACHAL NALLA, PILUKHEDI",23.5024937,77.134135,Bhopal,MADHYA PRADESH,22.6,7.2,7.6,474,3.4,1.92,75,422.0,yes,
2954,"PARVATI BEFORE MEETING RIVER CHAMBAL AT KHATOLI, KOTA",25.6816594,76.4758974,Jaipur,RAJASTHAN,26.5,5.8,8.4,471,1.5,0.52,6,49.0,no,
1607,"GOHAD DAM, GOHAD",26.4290952,78.4303664,Bhopal,MADHYA PRADESH,23.3,7.8,7.5,642,2.4,0.40,,,yes,
1367,KHAN AT KABIT KHEDI (NR INDORE) ,22.7688201,75.907417,Bhopal,MADHYA PRADESH,,8.6,7.6,219,1.3,0.03,,34.0,yes,
1369,KSHIPRA AT RAMGHAT AT UJJAIN,23.18866,75.764912,Bhopal,MADHYA PRADESH,27.3,6.1,8.2,1015,13.7,1.60,,,no,
1370,KSHIPRA AT TRIVENISANGAM ,22.9678988,75.9175657,Bhopal,MADHYA PRADESH,27.7,6.9,7.6,913,9.0,3.01,,,yes,
1468,KSHIPRA AT SIDDHAWAT (D/S),23.2113297,75.7746257,Bhopal,MADHYA PRADESH,27.6,5.9,7.9,1053,12.3,1.95,,,yes,
2953,"KALI SINDH AT ANICUT OF M/S CFCL GADEPAN, KOTA",24.6216104,76.1915487,Jaipur,RAJASTHAN,25.5,5.4,7.9,421,1.3,0.67,5,14.0,yes,
2956,"KALI SINDH AT BAROD RD BDG, KOTA",22.3189132,73.2135032,Jaipur,RAJASTHAN,26.2,5.5,8.2,535,1.7,0.57,4,13.0,no,
1608,SINDH AT DABRA,25.8907463,78.3324511,Bhopal,MADHYA PRADESH,22.3,8.0,8.0,897,1.9,0.40,,,yes,
2117,"BICHIA, BRIDGE GOVINDGARH ROAD",28.3049982,81.1533868,Bhopal,MADHYA PRADESH,23.1,5.7,7.7,884,6.5,2.80,162,683.0,yes,
1433,SANKH AT TIGRA RESERVOIR,25.8907463,78.3324511,Bhopal,MADHYA PRADESH,22.6,7.7,7.6,693,2.0,0.30,,,yes,
2950,"BANAS, DHANARI DAM, NEAR SWAROOPGANJ, SIROHI",24.6552948,72.9259012,Jaipur,RAJASTHAN,23.9,5.3,7.8,538,2.5,0.33,4,12.0,yes,
2952,"BANAS NEAR NEWTA DAM, JAIPUR",26.8016678,75.681929,Jaipur,RAJASTHAN,28.4,3.0,8.0,1547,12.5,0.52,8,278.0,yes,
2951,"BANAS, BISULPUR DAM, TONK",25.9246602,75.456048,Jaipur,RAJASTHAN,22.1,5.9,8.3,290,1.9,0.19,4,19.0,no,
2945,"CHHAPI, U/S CHHAPI DAM",24.3151711,76.4635387,Jaipur,RAJASTHAN,27.0,5.5,8.2,461,1.4,0.51,3,26.0,no,
2946,UJAD U/S BHIM SAGAR DAM,26.847017,75.817606,Jaipur,RAJASTHAN,26.5,5.4,8.0,349,2.0,0.37,4,28.0,yes,
2382,DAMODAR AT PHUSRO ROAD BDG.,23.3883003,85.3229992,Ranchi,JHARKHAND,25.0,7.3,7.5,,3.4,,,,yes,
2383,DAMODAR U/S JAMADOVA,23.7159474,86.4136687,Ranchi,JHARKHAND,30.2,7.1,7.5,,2.6,,,,yes,
2384,DAMODAR D/S SINDRI,23.7483096,86.7058637,Ranchi,JHARKHAND,32.9,7.1,7.6,,2.6,,,,yes,
2391,DAMODAR AT PANCHET DAM,23.6811286,86.7474518,Ranchi,JHARKHAND,34.0,7.5,7.3,,0.8,,,,yes,
1331,DAMODAR AT DISHERGARH VILL.(NR.BIHAR-WB BORDER) ,23.6922971,86.8295645,Kolkata,WEST BENGAL,26.2,7.8,7.6,186,1.9,0.29,2182,9118.0,yes,
1332,DAMODAR AT D/S OF IISCO AFTER 3RD OUTFALL AT DHENNA VILLAGE,23.6922971,86.8295645,Kolkata,WEST BENGAL,28.5,8.4,7.8,231,1.8,0.25,545,5445.0,yes,
1333,DAMODAR AT NARAINPUR AFTER CONFL. OF NUNIA NALLAH,26.2884203,84.2526559,Kolkata,WEST BENGAL,27.9,8.3,7.9,271,2.1,0.29,1036,13146.0,yes,
1334,DAMODAR NEAR MUJHER MANA VILLAGE A/C TAMLA NALLAH,26.2884203,84.2526559,Kolkata,WEST BENGAL,29.5,6.3,8.0,457,3.9,1.97,6409,53000.0,yes,
1335,DAMODAR AT HALDIA D/S (2 KM AWAY FROM HALDIA TOWN),22.0666742,88.0698118,Kolkata,WEST BENGAL,27.8,6.2,7.6,7398,2.4,0.32,361250,1578750.0,yes,
2527,WATER INTAKE PT BURDWAN TOWN,23.2324214,87.8614792,Kolkata,WEST BENGAL,26.8,7.6,7.7,276,3.0,0.63,1320,7070.0,yes,
2392,BARAKAR AT MAITHAN DAM,23.850278,86.777778,Kolkata,WEST BENGAL,34.3,7.5,7.5,,1.3,,,,yes,
1336,BARAKAR AT ASANSOL (WATER INTAKE PT),23.6739452,86.9523954,Kolkata,WEST BENGAL,27.9,8.1,7.8,210,2.2,0.50,12282,62973.0,yes,
2390,KONAR AT TENUGHAT DAM,23.7255788,85.8360659,Kolkata,JHARKHAND,34.3,7.8,7.4,,0.8,,,,yes,
2509,"D/S OF RUPNARAYAN AT KOLAGHAT, NEAR KOLAGHAT RAIL BRIDGE NO.3",22.4329227,87.8598861,Kolkata,WEST BENGAL,27.6,6.5,7.7,901,2.0,0.31,44909,218455.0,yes,
1337,RUPNARAYAN B/C R. GANGA NR GEONKHALI,22.2021731,88.047923,Kolkata,WEST BENGAL,28.0,6.4,7.8,1496,1.2,0.38,55750,200917.0,yes,
2541,WATER INTAKE POINT - BANKURA TOWN ON R. DWARAKESHWAR,23.164543,87.062426,Kolkata,WEST BENGAL,27.5,8.0,7.6,283,2.6,0.29,860,6840.0,yes,
2531,U/S OF TARAPITH ON RIVER DWARKA AT SADHAK BAMDEB GHAT,23.164543,87.062426,Kolkata,WEST BENGAL,27.7,5.7,7.5,465,5.3,1.35,80400,241400.0,yes,
2532,"D/S OF TARAPITH ON DWARKA, SATIGHAT",23.164543,87.062426,Kolkata,WEST BENGAL,28.0,5.6,7.5,523,4.2,0.97,15940,44700.0,yes,
2508,"D/S OF SILABATI AT GHATAL,",22.6636967,87.7468071,Kolkata,WEST BENGAL,27.9,7.1,7.7,257,2.3,0.30,72818,332818.0,yes,
2514,"JALANGI, D/S OF KRISHNA NAGAR",24.1279467,88.6904272,Kolkata,WEST BENGAL,28.2,7.9,7.7,378,4.4,0.45,20118,32727.0,yes,
1764,CHURNI D/S OF SANTIPUR TOWN,23.2645399,88.4380966,Kolkata,WEST BENGAL,28.8,4.8,7.6,450,2.4,0.41,32917,49000.0,yes,
2518,"CHURNI, MAJHADIA",23.2060462,88.5516516,Kolkata,WEST BENGAL,28.5,2.3,7.3,529,14.5,0.41,685909,986364.0,yes,
2517,"MATHA BHANGA, GOBINDAPUR",23.2060462,88.5516516,Kolkata,WEST BENGAL,28.4,1.9,7.2,514,16.1,0.48,1471818,2584545.0,yes,
2534,WATER INTAKE POINT FOR SURI TOWN ON R. MAYURAKSHI,23.9040878,87.524748,Kolkata,WEST BENGAL,26.7,7.6,7.8,159,2.2,0.18,1442,4329.0,yes,
2507,"D/S OF KANSI AT MIDNAPORE, NEAR NEW HANUMAN MANDIR",22.4196972,87.3085505,Kolkata,WEST BENGAL,27.6,8.3,7.6,202,2.7,0.17,44273,311455.0,yes,
1946,MAHANANDA AT SILIGURI,26.7271012,88.3952861,Kolkata,WEST BENGAL,25.7,7.2,7.0,148,3.3,0.33,99818,179273.0,yes,
2525,"MAHANANDA D/S, RAMGHAT",26.7271012,88.3952861,Kolkata,WEST BENGAL,22.3,8.1,7.3,88,2.0,0.27,162818,585000.0,yes,
2572,"MAHANANDA AT THAKURGANJ, KISHANGANJ ROAD BRIDGE",26.4278342,88.1266983,Patna,BIHAR,25.7,7.3,7.7,384,2.7,,1533,3133.0,yes,
2549,U/S OF VINDYADHARI AT HAROA BDG,26.4278342,88.1266983,Kolkata,WEST BENGAL,25.7,1.6,7.7,4428,10.2,0.17,90364,167545.0,yes,
2550,D/S OF VINDYADHARI AT MALANCHA BURNING GHAT,26.4278342,88.1266983,Kolkata,WEST BENGAL,25.0,2.7,7.7,11409,4.2,0.64,42727,73182.0,yes,
2381,BOKARO AT JARANDI,23.3710229,85.3279582,Ranchi,JHARKHAND,,6.7,6.5,,2.6,,,,yes,
2396,JUMAR AT KANKE DAM,23.4097851,85.4014921,Ranchi,JHARKHAND,22.7,6.4,7.0,,3.8,,130,750.0,yes,
1260,BRAHMAPUTRA AT KHERGHAT (A/ C DIBANG & DIHANG),25.905961,93.72825,Dispur,ASSAM,23.3,7.9,7.3,128,2.6,0.13,180,1149.0,yes,
1030,BRAHMAPUTRA AT DIBRUGARH,25.905961,93.72825,Dispur,ASSAM,23.2,8.4,7.3,148,2.1,0.14,142,1561.0,yes,
1262,BRAHMAPUTRA AT NIMATIGHAT,26.8391734,94.2458905,Dispur,ASSAM,23.8,6.4,7.1,151,1.5,0.12,124,780.0,yes,
1526,BRAHMPUTRA AT DHENUKHAPAHAR,26.1445169,91.7362365,Dispur,ASSAM,24.3,7.7,7.5,152,2.1,0.16,160,982.0,yes,
1031,BRAHMAPUTRA AT PANDU,26.1445169,91.7362365,Dispur,ASSAM,25.4,7.3,7.3,159,1.5,0.15,386,1545.0,yes,
1299,BRAHMAPUTRA AT JOGIJHOGA ,26.1833004,91.7370002,Dispur,ASSAM,26.8,7.0,7.2,194,2.3,0.13,154,2225.0,yes,
2069,"BRAHMPUTRA NEAR WATER INTAKE PT AT KACHARIGHAT, PANBAZAR",26.1833004,91.7370002,Dispur,ASSAM,25.3,7.0,7.5,156,1.7,0.12,220,740.0,yes,
2064,BRAHMAPUTRA AT CHANDRAPUR,26.2295193,91.9196948,Dispur,ASSAM,26.4,7.4,7.4,153,1.9,0.12,200,363.0,yes,
2067,BRAHMPUTRA AT SUALKUCHI,26.1703301,91.570327,Dispur,ASSAM,26.0,7.8,7.3,169,1.1,0.16,600,1837.0,yes,
2066,BRAHMAPUTRA AT DHUBRI,26.0206982,89.9743462,Dispur,ASSAM,27.4,6.9,7.2,147,1.6,0.10,200,720.0,yes,
1799,TOWN BOUNDARY BDGE(DIPHU RD),25.9132489,93.7511268,Kohima,NAGALAND,23.0,4.0,7.8,199,1.8,,,,yes,
1797,BRIDGE NEAR PURANA BAZAAR,25.9132489,93.7511268,Kohima,NAGALAND,25.3,5.1,7.7,271,0.8,,,,yes,
1800,NUTON BASTI,25.9132489,93.7511268,Kohima,NAGALAND,25.3,1.1,7.4,287,3.4,,,,yes,
1798,NEAR CHECK GATE (DIMAPUR KHUTKHUTI ROAD),25.9132489,93.7511268,Kohima,NAGALAND,25.0,4.7,7.8,273,1.3,,,,yes,
1259,DHANSIRI AT GOLAGHAT,26.5238515,93.96233699,Dispur,ASSAM,28.5,6.6,7.1,173,1.6,,,,yes,
1928,"DHANSIRI AT NAGALAND-ASSAM BORDER, DIMAPUR",25.8629885,93.7536662,Kohima,NAGALAND,24.0,3.0,7.5,295,1.6,,,,yes,
1930,DZU D/S KOHIMA TOWN,25.6585963,94.1053306,Kohima,NAGALAND,20.5,4.5,8.0,420,0.9,,,,no,
1929,"CHATHE AT MEDZIPHEMA, DIMAPUR",25.8629885,93.7536662,Kohima,NAGALAND,26.3,4.2,7.8,172,0.8,,,,yes,
1261,"SUBANSIRI AT GEREKAMUKH,ASSAM,(B/C BRAH.)",27.5300397,94.2652147,Dispur,ASSAM,20.8,8.9,7.0,104,1.7,0.11,,91.0,yes,
2061,KHARSANG B/C BURIDIHING NEAR KHARSANG,27.4149096,95.9991228,Dispur,ASSAM,22.0,7.1,7.0,182,1.8,0.13,90,501.0,yes,
1422,BURHIDIHING AT MARGHERITA,27.2910662,95.6694605,Dispur,ASSAM,22.3,5.8,7.0,188,2.7,0.12,,607.0,yes,
2062,"BURIDIHING NR DULIAJAN AT D/S,",27.3572121,95.3222502,Dispur,ASSAM,24.0,5.7,6.6,129,2.1,0.13,100,767.0,yes,
2230,BURHIDIHING AT DULIAJAN (INTAKE POINT OF OIL INDIA LTD.),27.3572121,95.3222502,Dispur,ASSAM,24.0,6.1,6.6,129,4.6,0.16,200,1070.0,yes,
2065,"PAGLDIA  NALBARI TOWN, NALBARI",26.4446185,91.4410527,Dispur,ASSAM,26.3,6.9,7.9,242,1.2,0.12,120,244.0,yes,
1530,"DIGBOI AT LAKHIPATHE,RES. FOREST",27.4156838,95.538719,Dispur,ASSAM,23.5,6.0,6.7,141,3.6,0.11,,120.0,yes,
2063,"JAI BHARALI NEAR BISWANATH CHARALI, SONITPUR",26.6738851,92.8577104,Dispur,ASSAM,24.0,8.9,7.3,94,1.3,0.10,120,767.0,yes,
2237,"KALONG AT U/S OF ANANDARAM DEKIAL PHUKAN BRIDGE, NAGAON",26.3463713,92.6840426,Dispur,ASSAM,29.3,7.6,6.7,142,3.0,0.11,330,1515.0,yes,
2059,KOLONG AT MARIGAON,26.2599654,92.2630392,Dispur,ASSAM,27.7,7.1,7.6,111,1.6,0.11,233,487.0,yes,
2060,"MANAS AT NH-31 CROSSING, BARPETA, DISTRICT",26.3215985,90.9820667,Dispur,ASSAM,25.3,6.9,7.2,293,2.2,0.13,90,530.0,yes,
2058,"DISANG AT DILLIGHAT, DIBRUGARH ",27.4728327,94.911962,Dispur,ASSAM,22.0,5.8,7.3,178,2.9,0.16,120,1067.0,yes,
1298,DISANG AT GUNDAMGHAT,27.4728327,94.911962,Dispur,ASSAM,22.5,4.7,6.8,57,1.7,0.13,,560.0,yes,
1258,JHANJI AT N.H. CROSSING JORHAT,26.7465203,94.2025859,Dispur,ASSAM,23.5,6.4,7.1,106,2.3,0.15,,400.0,yes,
1527,BHOGDOI AT JORHAT ,26.7465203,94.2025859,Dispur,ASSAM,24.5,6.1,7.1,127,2.3,0.12,547,6033.0,yes,
1531,*MORA BHARALI  AT TEZPUR,26.6528495,92.7925592,Dispur,ASSAM,24.8,6.9,7.9,189,2.4,0.12,100,967.0,yes,
1423,BORAK AT PANCHAGRAM,26.6521907,92.7895702,Dispur,ASSAM,15.7,7.2,7.2,127,2.0,0.11,200,637.0,yes,
1528,BHARALU AT GUWAHATI,26.1445169,91.7362365,Dispur,ASSAM,27.3,0.0,7.1,739,41.5,0.27,970,8467.0,yes,
1529,DEEPAR BILL,26.1176941,91.6493531,Dispur,ASSAM,28.1,5.5,7.3,249,4.6,0.20,100,5243.0,yes,
2068,"U/S OF KATHAKAL ,MATIJURI",24.6518946,92.606739,Dispur,ASSAM,12.8,7.2,7.2,139,2.6,0.11,423,1100.0,yes,
1801,TEESTA A/C RIVERS LACHENCHU AND LACHUNGCHU AT CHUNGTHAANG,27.6039119,88.6464449,Gangtok,SIKKIM,,23.1,6.5,268,2.6,2.31,28,79.0,no,
1807,TEESTA A/C RANICHU AT SINGTAM,27.1364448,88.3931153,Gangtok,SIKKIM,,20.2,6.3,293,3.9,2.70,123,251.0,no,
1808,TEESTA A/C RANGICHU AFTER MEETING THE INDL EFFLUENTS FROM THE TOWN RANICHU,27.1364448,88.3931153,Gangtok,SIKKIM,,19.3,6.1,283,4.3,2.70,80,258.0,no,
1809,TEESTA AT MELLI DOWNSTREAM,27.1364448,88.3931153,Gangtok,SIKKIM,,18.6,6.2,288,4.3,2.80,101,404.0,no,
1947,TEESTA AT SILIGURI,26.7271012,88.3952861,Kolkata,WEST BENGAL,19.08333,8.6,7.3,111,2.9,0.25,77333,116167.0,yes,
1802,"DIKCHU B/C RIVER TEESTA NEAR NHPC HYDROELECTRIC POWER PROJECT, SIKKIM",27.5329718,88.5122178,Gangtok,SIKKIM,,22.9,6.4,278,2.4,2.30,27,91.0,no,
1803,"MANEY KHOLA AT BURTUK NEAR ARMY BASE CAMP, 4 KM        U/S OF GANGTOK, SIKKIM",27.5329718,88.5122178,Gangtok,SIKKIM,,22.4,6.5,293,3.2,2.32,35,114.0,yes,
1804,"MANEY KHOLA A/C RAY KHOLA AT ADAMPOOL AFTER MEETING WASTE OF STP, GANGTOK ",27.3389356,88.6065035,Gangtok,SIKKIM,,23.1,6.2,256,3.3,2.37,37,132.0,no,
1805,"AFTER CONFLUENCE OF RANICHU AND RORACHU AT RANIPOOL, SIKKIM",27.2914168,88.5915536,Gangtok,SIKKIM,,22.4,6.4,277,3.6,2.54,48,172.0,no,
1806,RANICHU BEFORE CONFLUENCE WITH RIVER TEESTA AT SINGTAM,27.1364448,88.3931153,Gangtok,SIKKIM,,20.9,6.2,283,3.8,2.53,52,190.0,no,
2229,"KUNDLI AT KUNDLI/ SAPAKHOWA, SADIA.",27.9187665,95.7642171,Dispur,ASSAM,22.0,7.4,7.5,144,1.3,0.14,,453.0,yes,
2231,DIKHOW AT DIKHOW BDG SIVASAGAR,26.9826098,94.6424521,Dispur,ASSAM,23.5,7.2,7.2,150,1.6,0.15,90,1003.0,yes,
2232,"KOHORA AT N.H. CROSSING, KOHORA",26.6029735,93.4117916,Dispur,ASSAM,29.0,6.7,7.1,76,1.8,0.12,90,1493.0,yes,
2233,"BOGINADI NR BDG NH-52, LAKHIMPUR",27.2063587,94.1513764,Dispur,ASSAM,22.3,8.5,7.1,128,2.8,0.10,75,273.0,yes,
2234,RANGA NADI D/S OF HYDEL PROJECT,27.2063587,94.1513764,Dispur,ASSAM,23.5,8.3,7.1,116,3.0,0.11,90,273.0,yes,
2236,"KAPILI AT DHARMTUL BRIDGE, NH-31, NAGAON",26.3463713,92.6840426,Dispur,ASSAM,27.0,7.3,6.5,85,1.5,0.10,455,1001.0,no,
2238,BEKI AT NH-37 CROSSING AT BARPETA ROAD,26.3463713,92.6840426,Dispur,ASSAM,24.5,7.1,6.8,145,3.2,0.11,90,485.0,yes,
2239,"SANKOSH, DHUBRI",26.0206982,89.9743462,Dispur,ASSAM,27.5,6.9,7.4,98,0.7,0.14,228,230.0,yes,
2240,BARAK AT D/S OF SILCHAR,24.8332708,92.7789053,Dispur,ASSAM,12.6,7.1,7.2,145,2.8,0.14,220,1373.0,yes,
2241,SONAI AT SONAI,24.7326006,92.8888911,Dispur,ASSAM,15.8,7.3,7.2,94,3.8,0.11,303,887.0,yes,
2242,KUSHIARA AT KARIMGANJ,24.8653206,92.3587082,Dispur,ASSAM,12.5,7.1,7.2,123,1.6,0.13,120,503.0,yes,
2523,"KAROLA, D/S OF JALPAIGURI, NEAR MIN BHAWAN",26.5434772,88.7205255,Kolkata,WEST BENGAL,26.4,7.7,7.0,79,2.9,0.19,92818,11000.0,yes,
2524,"KALJANI D/S OF ALIPURDWAR, MUNICIPALITY DISCHARGE POINT",26.4918891,89.5271026,Kolkata,WEST BENGAL,26.1,7.4,7.2,139,2.7,0.19,72200,102100.0,yes,
2235,"PANCHNAI AT NH-52 CROSSING, ORANG",24.8653206,92.3587082,Dispur,ASSAM,21.5,8.4,7.5,110,2.0,0.11,575,1525.0,yes,
1232,MAHI (D/S) CONF WITH R. CHAP (UNDER SAGWARA-SARHI RD. BDG.),24.6552948,72.9259012,Jaipur,RAJASTHAN,28.4,5.4,8.5,581,1.0,0.85,4,16.0,no,
1863,MAHI AT UMETA BRIDGE,22.339252,73.015677,Gandhinagar,GUJARAT,25.0,7.8,8.3,517,1.0,0.36,4,21.0,no,
1864,MAHI AT MUJPUR,23.5904229,71.8482387,Gandhinagar,GUJARAT,23.2,7.8,7.8,578,2.5,0.34,4,13.0,yes,
4,MAHI AT SEVALIA,22.8100749,73.3443425,Gandhinagar,GUJARAT,26.6,7.6,8.1,418,3.3,0.22,3,9.0,no,
5,MAHI AT VASAD,22.4562973,73.0610368,Gandhinagar,GUJARAT,25.0,8.8,8.3,561,2.0,0.38,3,9.0,no,
1229,MAHI NEAR RAJASTHAN BORDER AT KADANA DAM,23.3057915,73.8255487,Gandhinagar,GUJARAT,27.1,7.7,8.3,354,3.4,0.14,4,14.0,no,
1230,MAHI AFTER CONF. WITH ANAS AT PARDI (BANASWADA),20.5230393,72.9593586,Gandhinagar,GUJARAT,27.5,7.7,8.3,348,3.2,0.05,4,14.0,no,
1231,MAHI AT VIRPUR,21.8457287,70.6975175,Gandhinagar,GUJARAT,26.0,7.7,8.1,403,3.1,0.05,4,16.0,no,
2102,"SHIVNA AT RAMGHAT, MANDSAUR",24.076836,75.069295,Bhopal,MADHYA PRADESH,26.6,7.3,7.6,423,2.5,0.93,,,yes,
2103,"JAMMER AT DHOLOWAD, RATLAM",23.3341696,75.0376324,Bhopal,MADHYA PRADESH,28.7,7.1,7.6,312,2.0,0.72,,,yes,
2104,MALEI AT JAORA,23.6375958,75.125964,Bhopal,MADHYA PRADESH,26.8,7.2,7.6,364,0.9,1.48,,,yes,
2105,CHILLAR AT SHAJAPUR,23.4272938,76.2729838,Bhopal,MADHYA PRADESH,27.4,7.1,7.5,426,2.1,0.99,,,yes,
1228,"ANAS AT DAHOD,(KUSHALGARH), PANCHMAHAL",22.8011177,73.5594128,Gandhinagar,GUJARAT,27.0,7.0,8.5,668,5.0,0.17,4,17.0,no,
1227,PANAM AT LUNAWADA,23.130011,73.610869,Gandhinagar,GUJARAT,27.0,5.5,8.6,391,4.0,0.03,5,15.0,no,
1482,"SABARMATI AT MAHUDI JAIN TEMPLE, 150 KM. FROM ORIGIN",23.4933635,72.7835052,Gandhinagar,GUJARAT,22.0,7.1,8.1,506,4.0,0.47,90,430.0,no,
1222,SHEDHI AT KHEDA,22.9250506,72.9932969,Gandhinagar,GUJARAT,28.0,7.7,8.4,2945,17.5,0.27,7,30.0,no,
1241,NARMADA AT MANDLA NR RD BDG,22.5979218,80.3713854,Bhopal,MADHYA PRADESH,25.5,7.8,7.4,464,1.9,0.85,1,87.0,yes,
44,NARMADA AT SETHANIGHAT ,22.7626504,77.716503,Bhopal,MADHYA PRADESH,37.5,8.3,8.1,284,2.0,1.06,10,732.0,no,
1240,NARMADA AT NARSINGHPUR ,22.946557,79.194353,Bhopal,MADHYA PRADESH,24.0,8.0,7.6,593,1.4,1.30,,38.0,yes,
1234,NARMADA AT HOSHANGABAD U/S ,22.744108,77.736967,Bhopal,MADHYA PRADESH,37.0,8.6,8.0,255,1.3,0.98,4,576.0,no,
2123,NARMADA AT KORIGHAT ,22.7615396,77.7187543,Bhopal,MADHYA PRADESH,37.0,7.9,8.0,269,1.8,0.90,8,613.0,yes,
1235,NARMADA AT HOSHANGABAD D/S ,22.744108,77.736967,Bhopal,MADHYA PRADESH,37.0,8.0,8.2,299,2.1,1.03,6,631.0,no,
2106,RIVER NARMADA AT NEMAWAR,22.4971107,76.9801476,Bhopal,MADHYA PRADESH,25.2,7.0,7.5,336,1.8,0.48,,,yes,
2099,"NARMADA AT LALPUR, JABALPUR",23.181467,79.986407,Bhopal,MADHYA PRADESH,23.4,7.6,7.5,355,1.6,0.75,,100.0,yes,
1245,NARMADA AT CHANDOD,21.9857935,73.45558749,Gandhinagar,GUJARAT,26.4,7.6,7.9,274,2.3,0.18,5,16.0,yes,
2100,"GOUR AT BHOGA DOOR, JABALPUR",23.181467,79.986407,Bhopal,MADHYA PRADESH,22.4,7.2,7.6,482,2.4,0.73,2.00,111.0,yes,
2101,KATNI RIVER NEAR NAGAR NIGAM,22.7229345,75.8599315,Bhopal,MADHYA PRADESH,21.4,7.8,7.5,536,1.7,0.97,,82.0,yes,
1313,TAPI AT AJNAND VILLAGE,21.2788724,73.6065223,Mumbai,MAHARASHTRA,34.4,6.1,7.7,536,5.3,2.42,16,41.0,yes,
1251,TAPI AT BHUSAWAL US ,21.0455204,75.8010962,Mumbai,MAHARASHTRA,32.0,5.7,7.5,604,5.7,2.50,17,54.0,yes,
1314,TAPI AT UPHAD VILLAGE,21.0455204,75.8010962,Mumbai,MAHARASHTRA,31.4,6.2,7.6,573,4.7,3.14,19,50.0,yes,
46,"TAPI AT UKAI, SHERULA BRIDGE",21.2341558,73.5785522,Gandhinagar,GUJARAT,27.5,7.0,7.7,352,1.5,0.10,2215,3170.0,yes,
1247,TAPI AT MANDAVI,22.8491137,69.329472,Gandhinagar,GUJARAT,27.7,7.4,8.0,359,1.9,0.22,677,1510.0,yes,
47,"TAPI AT KATHORE, (NH-8 BRIDGE)",21.2900223,72.935102,Gandhinagar,GUJARAT,27.5,7.2,7.7,535,2.0,0.30,566,1908.0,yes,
1248,TAPI AT SURAT U/S KATHORE,21.1702401,72.8310607,Gandhinagar,GUJARAT,27.5,7.1,8.0,525,1.9,0.30,1058,2775.0,yes,
1982,"TAPI AT RANDER BRIDGE, SURAT",21.1730415,72.8312892,Gandhinagar,GUJARAT,27.0,7.0,7.9,659,1.9,0.27,1200,2150.0,yes,
1983,TAPI NR BARDOLI (KAPP BRIDGE) ,21.125749,73.1121167,Gandhinagar,GUJARAT,29.0,6.1,7.9,352,2.4,0.23,2350,13150.0,yes,
2071,TAPI AT ONGC BRIDGE AT SURAT,21.1730415,72.8312892,Gandhinagar,GUJARAT,27.5,4.4,7.5,25418,4.9,0.20,2815,5850.0,yes,
1253,GIRNA AT MALEGAON (MANMAD),20.5547497,74.5100291,Mumbai,MAHARASHTRA,25.8,5.7,7.7,417,4.3,1.74,17,50.0,yes,
1252,GIRNA AT JALGAON,21.0076578,75.5626039,Mumbai,MAHARASHTRA,32.0,6.0,7.7,664,5.4,2.51,18,43.0,yes,
2070,"KIM AT SAHOL BRIDGE, OLPAD HANSOT ROAD, DIST. SURAT",21.456571,72.892669,Gandhinagar,GUJARAT,27.8,5.7,7.9,830,2.6,0.30,2250,5175.0,yes,
1907,RANGAVALI D/S OF NAVAPUR,21.1616527,73.7946402,Mumbai,MAHARASHTRA,30.7,5.8,7.7,487,5.2,2.75,19,39.0,yes,
2127,"DENWA NEAR SARNI, ROAD BRIDGE",21.1616527,73.7946402,Mumbai,MADHYA PRADESH,37.3,7.5,7.8,521,2.2,3.40,12,647.0,yes,
2155,"PURNA A/C MORNA, NANDURA VILL.",20.7131519,76.2980127,Mumbai,MAHARASHTRA,21.9,5.2,7.8,995,6.6,3.25,116,346.0,yes,
2652,"AMRAVATI D/S DONDAICHA, DHULE",21.3245073,74.5563859,Mumbai,MAHARASHTRA,29.3,6.2,7.5,520,5.0,3.03,17,51.0,yes,
2658,"BORI D/S OF AMALNER, JALGAON",21.0419208,75.0581942,Mumbai,MAHARASHTRA,31.4,6.4,7.6,507,4.0,2.47,20,68.0,yes,
2659,"BURAI BEFORE CONFLUECE TO TAPI, MUKUDAS, DHULE",21.0419208,75.0581942,Mumbai,MAHARASHTRA,28.4,6.2,7.6,510,4.8,3.51,26,53.0,yes,
2666,"GOMAI D/S OF SHAHADA, DHULE",21.5455841,74.4683333,Mumbai,MAHARASHTRA,29.4,6.1,7.5,540,5.1,2.84,22,69.0,yes,
2667,"HIWARA D/S OF PACHORA, JALGAON",21.0076578,75.5626039,Mumbai,MAHARASHTRA,31.1,6.5,7.6,561,3.7,2.28,35,96.0,yes,
2674,"MOR NEAR PADALSHE, JALGAON",21.0076578,75.5626039,Mumbai,MAHARASHTRA,31.3,6.5,7.7,579,3.8,2.54,29,69.0,yes,
2675,MORNA AT D/S OF RAILWAY BRIDGE AT AKOLA.,20.7059345,77.0219018,Mumbai,MAHARASHTRA,22.0,5.2,7.9,840,5.7,2.04,178,348.0,yes,
2684,"PANZARA NEAR PANZARAKAN SSK LTD, PANZARA,DHULE",21.5455841,74.4683333,Mumbai,MAHARASHTRA,31.6,6.3,7.7,568,4.9,2.15,28,89.0,yes,
2695,"PEDHI  NEAR ROAD BRIDGE AT DADHI-PEDHI VILLAGE, BHATKULI, AMRAVATI",20.9059866,77.6034893,Mumbai,MAHARASHTRA,20.6,4.8,8.1,1182,11.0,2.41,164,528.0,no,
2710,"TITUR D/S OF CHALISGAON, JALGAON",21.0076578,75.5626039,Mumbai,MAHARASHTRA,31.4,6.5,7.8,482,4.3,1.96,19,46.0,yes,
2718,"WAGHUR  AT SAKEGAON B/C TAPI RIVER, JALGAON",21.0076578,75.5626039,Mumbai,MAHARASHTRA,32.0,5.8,7.8,445,4.8,2.12,19,52.0,yes,
1851,MAHANADI AT SIHAWA,21.2403659,81.6476182,Raipur,CHHATTISGARH,28.5,8.2,7.7,296,,0.80,220,11.0,yes,
1264,MAHANADI AT RUDRI U/S AT DHAMTORI RESERVOIR,20.6644811,81.5527867,Raipur,CHHATTISGARH,28.8,7.8,7.6,347,,1.40,,101.0,yes,
1099,MAHANADI AT U/S OF RAJIM,20.9632408,81.8907183,Raipur,CHHATTISGARH,28.7,7.7,7.7,372,,1.40,,158.0,yes,
1852,"MAHANADI AT ARRANG, RAIPUR",20.9632408,81.8907183,Raipur,CHHATTISGARH,30.3,7.6,7.7,392,,1.60,350,37.0,yes,
1100,MAHANADI AT KHARAD ,22.3102503,72.0157045,Raipur,CHHATTISGARH,29.0,6.9,7.7,233,1.4,2.07,,15.0,yes,
1282,MAHANADI AT SHEORINARAYAN VILLAGE,21.7217973,82.5948779,Raipur,CHHATTISGARH,29.0,7.2,7.5,320,1.4,2.51,,18.0,yes,
1467,MAHANADI A/C WITH RIVER MAND,21.7217973,82.5948779,Raipur,CHHATTISGARH,28.4,7.1,8.0,213,1.2,1.48,,18.0,yes,
1101,MAHANADI AT INTERSTATE BOUNDRY ,21.7217973,82.5948779,Raipur,CHHATTISGARH,27.2,7.3,7.5,272,1.2,1.26,,127.0,yes,
1281,MAHANADI AT HIRAKUD RESERVOIR,21.5305898,83.8704949,Bhubaneswar,ORISSA,27.2,7.6,7.9,189,1.4,0.92,1015,1937.0,yes,
1270,MAHANADI AT SAMBALPUR U/S,21.4668716,83.9811664,Bhubaneswar,ORISSA,27.0,7.5,7.8,199,1.5,0.18,1329,2415.0,yes,
1271,MAHANADI AT SAMBALPUR D/S,21.4668716,83.9811664,Bhubaneswar,ORISSA,26.6,6.8,7.8,238,2.5,0.51,26925,45192.0,yes,
2405,SAMBHALPUR FDS AT HUMA,21.4668716,83.9811664,Bhubaneswar,ORISSA,25.9,7.5,8.0,186,1.9,0.22,3184,5181.0,yes,
1272,MAHANADI D/S (AFTER CONFL. WITH R. ONG SONEPUR U/S),21.4668716,83.9811664,Bhubaneswar,ORISSA,26.4,7.3,7.9,203,1.3,0.39,819,1616.0,yes,
1274,MAHANADI A/C R.TEL (SONEPUR D/S),20.8480141,83.8950042,Bhubaneswar,ORISSA,27.0,7.2,8.0,237,1.8,0.34,1332,2625.0,no,
1275,MAHANADI AT TIKARPADA,20.6131507,84.7915998,Bhubaneswar,ORISSA,27.0,7.3,8.0,188,1.5,0.19,1578,3293.0,yes,
1276,MAHANADI AT NARSINGHPUR,22.946557,79.194353,Bhubaneswar,ORISSA,25.9,7.8,8.0,202,1.3,0.66,763,1508.0,no,
1277,MAHANADI AT CUTTACK U/S,20.462521,85.882989,Bhubaneswar,ORISSA,28.5,8.1,8.0,198,1.4,0.49,475,1023.0,no,
1278,MAHANADI AT CUTTACK D/S,20.462521,85.882989,Bhubaneswar,ORISSA,29.8,7.4,8.0,197,2.4,0.59,25475,35583.0,no,
2409,CUTTACK FDS (SERUA) AT SANKHATRASA,20.462521,85.882989,Bhubaneswar,ORISSA,27.3,7.5,8.0,210,2.2,0.48,2846,5018.0,yes,
2406,MUNDALI(WATER INTAKE POINT OF BHUBANESWAR CITY,20.4430118,85.7487189,Bhubaneswar,ORISSA,27.7,7.6,8.0,202,1.4,0.35,975,1718.0,yes,
2404,POWER CHANNEL D/S NEAR BURLA,21.4887957,83.8844067,Bhubaneswar,ORISSA,27.3,6.7,7.9,184,1.7,0.69,412,829.0,yes,
2407,PARADEEP U/S (BEFORE INDUSTRIAL ACTIVITY AT PARADEEP),21.4902509,83.8841732,Bhubaneswar,ORISSA,28.1,7.5,8.0,2453,1.3,0.78,1524,3017.0,no,
1639,MAHANADI AT PARADEEPD/S,21.4902509,83.8841732,Bhubaneswar,ORISSA,28.1,6.8,8.0,23242,2.1,1.40,1893,6148.0,yes,
1107,SEONATH AT U/S RAJNANDGAON,21.0971034,81.0302222,Raipur,CHHATTISGARH,22.8,7.5,7.5,320,1.5,0.49,270,658.0,yes,
1845,"SEONATH RIVER WATER SUPPLY WELL, DURG.",21.0971034,81.0302222,Raipur,CHHATTISGARH,24.3,7.5,7.4,329,1.6,0.40,,828.0,yes,
1266,SEONATH AT SHIMGA A/C  KHAROON,21.6287309,81.7048419,Raipur,CHHATTISGARH,28.8,7.6,7.6,389,,1.20,,106.0,yes,
1265,KHAROON AT RAIPUR U/S,21.2513844,81.6296413,Raipur,CHHATTISGARH,29.5,8.1,7.7,344,,1.40,,85.0,yes,
1847,"KHAROON RIVER B/C KHAPRI DRAIN, DURG, RAIPUR ROAD BRIDGE",21.2513844,81.6296413,Raipur,CHHATTISGARH,24.0,7.6,7.5,330,1.6,0.50,,820.0,yes,
1846,KHAROON RIVER A/C KHAPRI DRAIN,21.2513844,81.6296413,Raipur,CHHATTISGARH,23.8,7.5,7.5,336,1.9,0.60,,995.0,yes,
1853,"KHAROON RIVER BUNDRI, RAIPUR",21.2513844,81.6296413,Raipur,CHHATTISGARH,29.5,7.7,7.8,333,,1.50,240,41.0,yes,
1105,HASDEO AT U/S KORBA,22.3594501,82.7500595,Raipur,CHHATTISGARH,26.3,6.4,7.1,,1.4,1.31,,122.0,yes,
1106,HASDEO AT U/S OF CHAMPA,21.5601714,81.8743365,Raipur,CHHATTISGARH,28.9,6.9,7.9,236,1.6,1.73,,16.0,yes,
1849,KELO RIVER U/S OF RAIGARH,21.8974003,83.3949632,Raipur,CHHATTISGARH,27.3,7.3,7.5,266,1.4,1.22,,153.0,yes,
1850,KELO RIVER D/S OF RAIGARH,21.8974003,83.3949632,Raipur,CHHATTISGARH,27.3,7.2,7.6,278,2.1,1.26,,276.0,yes,
1267,"IB AT SUNDARGARH, ORISSA",22.0571189,84.6897495,Bhubaneswar,ORISSA,28.9,7.4,7.9,144,1.5,0.39,624,2353.0,yes,
1268,IB AT JHARSUGUDA (INTAKE),21.8554375,84.006166,Bhubaneswar,ORISSA,27.3,7.3,7.8,146,1.5,0.34,2367,4088.0,yes,
1300,IB AT  RAJ NAGAR U/S,20.573203,86.7145994,Bhubaneswar,ORISSA,27.5,7.5,7.9,157,1.4,0.25,711,1439.0,yes,
1269,IB AT BRAJRAJNAGAR (INTAKE) D/S,21.8221869,83.926018,Bhubaneswar,ORISSA,27.5,7.5,8.0,162,1.8,0.42,1288,2728.0,yes,
2403,BHEDEN B/C WITH IB RIVER,21.8221869,83.926018,Bhubaneswar,ORISSA,25.9,7.4,7.8,249,1.6,0.43,297,683.0,yes,
1279,KUAKHAI AT BHUBANESWAR U/S,20.2960587,85.8245398,Bhubaneswar,ORISSA,29.1,7.0,7.7,202,2.1,1.29,2958,6316.0,yes,
1280,KUAKHAI AT BHUBANESWAR D/S,20.2960587,85.8245398,Bhubaneswar,ORISSA,29.8,6.7,7.5,251,4.0,3.19,16342,25058.0,yes,
2410,KUAKHAI AT BHUBANESWAR FU/S,20.2960587,85.8245398,Bhubaneswar,ORISSA,29.1,8.8,7.9,191,1.8,0.29,478,932.0,yes,
2411,DAYA AT BHUBANESWAR FD/S ( 2 KM AFTER CONFL. OF GANGUA NALLAH W.RIVER DAYA),20.2960587,85.8245398,Bhubaneswar,ORISSA,29.8,6.4,7.6,261,3.4,2.39,8536,13327.0,yes,
1301,KATHAJODI AT CUTTACK D/S,20.462521,85.882989,Bhubaneswar,ORISSA,27.5,7.4,8.1,201,3.1,0.54,42667,61333.0,no,
2412,SANKHA U/S ( D/S OF MANDIRA DAM),20.3035646,85.8248737,Bhubaneswar,ORISSA,25.7,7.3,7.7,159,1.6,1.51,2466,5515.0,yes,
2408,TEL RIVER,20.3035646,85.8248737,Bhubaneswar,ORISSA,27.1,7.7,8.0,201,1.7,0.51,784,1453.0,yes,
1640,BIRUPA AT CHOUDWAR,20.5391679,85.915121,Bhubaneswar,ORISSA,27.8,7.3,8.0,216,1.7,0.63,2781,5163.0,yes,
1037,BRAHMANI AT U/S PANPOSH,22.2375766,84.8033401,Bhubaneswar,ORISSA,26.3,7.1,7.7,143,1.2,1.19,1848,3492.0,yes,
1038,BRAHMANI AT D/S PANPOSH,22.2375766,84.8033401,Bhubaneswar,ORISSA,26.3,6.4,7.4,296,4.7,4.15,8892,18450.0,yes,
1302,BRAHMANI AT ROURKELA D/S,22.260423,84.853584,Bhubaneswar,ORISSA,26.1,6.5,7.5,240,3.9,2.35,5407,12583.0,yes,
2414,ROURKELA FD/S AT BIRITOLA,22.260423,84.853584,Bhubaneswar,ORISSA,27.6,6.8,7.7,205,2.5,1.53,3026,5592.0,yes,
1039,BRAHMANI AT BONAIGARH,21.820617,84.951573,Bhubaneswar,ORISSA,28.3,7.8,7.9,192,1.6,1.54,1443,2825.0,yes,
1040,BRAHMANI AT RENGALI,20.9951897,84.288444,Bhubaneswar,ORISSA,28.8,7.9,7.7,143,1.5,0.86,813,1568.0,yes,
1041,BRAHMANI AT SAMAL,20.9951897,84.288444,Bhubaneswar,ORISSA,28.2,7.4,7.8,177,1.8,0.59,525,1069.0,yes,
1303,BRAHMANI AT TALCHER U/S,20.9501027,85.216816,Bhubaneswar,ORISSA,25.8,7.6,7.9,140,1.7,0.54,1250,2267.0,yes,
2415,"BRAHMANI AT TALCHER FU/S (INTAKE WELL OF MCL, TALCHER)",20.9501027,85.216816,Bhubaneswar,ORISSA,25.7,7.5,7.9,153,1.5,0.63,702,1257.0,yes,
2416,BRAHMANI AT TALCHER FD/S,20.9501027,85.216816,Bhubaneswar,ORISSA,27.4,7.3,7.8,160,1.8,0.57,3224,5378.0,yes,
1042,BRAHMANI AT KAMALANGA,20.8678436,85.2774207,Bhubaneswar,ORISSA,27.4,7.7,7.9,166,2.0,0.60,5642,11075.0,yes,
2417,"DHENKANAL D/S, DHENKANAL TOWN",20.6524526,85.6030439,Bhubaneswar,ORISSA,25.4,7.6,7.9,149,1.7,0.68,5867,10817.0,yes,
1043,BRAHMANI AT BHUBAN,20.2960587,85.8245398,Bhubaneswar,ORISSA,28.7,7.6,7.9,150,1.7,0.66,2683,5433.0,yes,
2418,KABATABANDHA (BEFORE IMPACT OF INDL ACTIY KALINGANAGAR AREA),20.8733543,86.0236363,Bhubaneswar,ORISSA,28.1,7.6,7.8,154,1.8,0.92,2323,5192.0,yes,
1044,BRAHMANI AT DHARMASHALA,20.8733543,86.0236363,Bhubaneswar,ORISSA,26.0,7.8,7.9,176,2.0,0.97,3537,6792.0,yes,
1045,BRAHMANI AT PATTAMUNDAI,20.8733543,86.0236363,Bhubaneswar,ORISSA,27.1,7.4,8.0,203,1.7,0.31,6133,14717.0,yes,
1036,KOEL AT MANOHARPUR AFTER MEETING KOINA RIVER D/S,21.185459,86.306612,Ranchi,JHARKHAND,26.1,7.8,7.6,169,0.6,4.67,,,yes,
2413,KOEL U/S (A/C RIVER KARO),22.262625,84.890664,Bhubaneswar,ORISSA,26.2,7.1,7.8,176,1.5,0.63,1995,4178.0,yes,
1033,"KOEL AT BASIA,DAM U/S",22.262625,84.890664,Ranchi,JHARKHAND,22.6,7.3,6.9,,1.9,,,,yes,
2376,NORTH KOEL U/S DALTANGANJ,22.2592158,84.9056114,Ranchi,JHARKHAND,24.3,7.8,7.1,,1.6,,150,750.0,yes,
2377,"NORTH KOEL D/S BCCL, REHLA",23.349473,85.335655,Ranchi,JHARKHAND,24.0,7.7,6.9,,1.8,,255,1500.0,yes,
2419,KHANDITARA (D/S OF INDUSTRIAL ACTIVITIES AT KALINGA NAGAR),20.8563332,86.1917035,Bhubaneswar,ORISSA,26.0,8.0,7.9,140,1.9,0.50,2118,3470.0,yes,
2420,AUL,20.8563332,86.1917035,Bhubaneswar,ORISSA,27.8,6.9,7.7,152,1.5,0.54,3299,5492.0,yes,
1034,SANKH AT BOLBA,22.4639737,84.429396,Ranchi,JHARKHAND,23.4,7.5,7.3,,2.0,,,,yes,
1035,KARO AT LOHOJIMI U/S,,,Ranchi,JHARKHAND,23.6,7.4,6.9,,2.6,,,,yes,
1081,BAITARNI AT JODA ,22.0192669,85.4066,Bhubaneswar,ORISSA,24.7,7.7,7.6,152,1.6,0.94,714,1472.0,yes,
1082,BAITARNI AT ANANDPUR,21.2148488,86.1241362,Bhubaneswar,ORISSA,27.8,7.3,7.8,161,1.6,0.40,3773,7209.0,yes,
1083,BAITARNI AT JAJPUR ,20.7652197,86.1751759,Bhubaneswar,ORISSA,26.8,8.0,8.0,183,2.0,0.85,5725,11871.0,no,
1084,BAITARNI AT CHANDBALI,20.7739916,86.743695,Bhubaneswar,ORISSA,27.2,6.9,7.7,7008,1.6,0.75,3712,8858.0,yes,
1085,BAITARNI AT DHAMRA ,20.8256031,86.9214248,Bhubaneswar,ORISSA,27.2,6.4,7.6,20369,1.7,1.37,2728,5174.0,yes,
2421,KUSEI BEFORE JOINING BAITARANI AT ANANDPUR,21.2148488,86.1248967,Bhubaneswar,ORISSA,28.2,7.6,8.1,241,1.2,0.28,1256,2798.0,no,
1641,SUBARNAREKHA AT RAJGHAT NEAR BIHAR BORDER,21.7646309,87.1551248,Bhubaneswar,ORISSA,22.4,7.7,8.0,249,1.5,0.25,2923,7300.0,yes,
2399,SUBARNAREKHA AT CHANDIL DAM,22.9720145,86.0079806,Ranchi,JHARKHAND,27.0,7.5,7.5,164,0.5,5.67,,,yes,
48,SUBARNAREKHA AT CHANDIL BDG,22.9720145,86.0079806,Ranchi,JHARKHAND,26.7,7.9,7.6,166,0.6,4.80,,,yes,
24,SUBARNAREKHA AT JAMSHEDPUR,22.8045665,86.2028754,Ranchi,JHARKHAND,27.8,7.1,7.5,184,2.0,6.55,,,yes,
49,"SUBARNAREKHA AT D/S JAMSHEDPUR,(TATA NAGAR)",22.8045665,86.2028754,Ranchi,JHARKHAND,26.3,6.2,7.7,181,2.6,6.63,,,yes,
2387,SUBARNAREKHA AT GHATISLA ROAD BRIDGE,22.5682108,86.4939727,Ranchi,JHARKHAND,26.5,7.8,7.5,155,0.4,5.18,,,yes,
23,"SUBARNAREKHA AT RANCHI,(TATISILWAI)  ",23.3440997,85.309562,Ranchi,JHARKHAND,24.3,6.3,7.0,,4.4,,330,1650.0,yes,
2385,AT NAMKUM ROAD BRIDGE,23.33235,85.38078,Ranchi,JHARKHAND,23.7,5.9,7.0,,5.2,,280,1500.0,yes,
2386,SUBARNAREKHA AT MURI RD BDG,23.3784241,85.8614181,Ranchi,JHARKHAND,23.1,7.5,7.0,,2.5,,280,1500.0,yes,
2395,SUBARNAREKHA AT HATIA DAM,23.4418339,85.4800646,Ranchi,JHARKHAND,22.6,7.6,7.2,,2.3,,255,1350.0,yes,
2397,SUBARNAREKHA AT GATALSUD DAM,23.456667,85.555278,Ranchi,JHARKHAND,23.5,7.8,7.3,,3.3,,110,750.0,yes,
1312,"GODAVARI AT JAYAKWADI DAM, AURNAGABAD",19.8761653,75.3433139,Mumbai,MAHARASHTRA,27.3,6.8,8.0,574,4.7,1.10,3,86.0,yes,
2177,GODAVARI RIVER NEAR SOMESHWAR TEMPLE.,19.1369759,72.9357784,Mumbai,MAHARASHTRA,25.5,5.9,7.7,313,6.5,1.51,21,77.0,yes,
2182,GODAVARI RIVER AT SAIKHEDA.,20.0142305,74.007978,Mumbai,MAHARASHTRA,25.7,5.5,7.6,363,6.6,1.71,17,47.0,yes,
2179,"GODAVARI AT HANUMAN GHAT, NASHIK CITY.",19.0159601,72.8517555,Mumbai,MAHARASHTRA,26.1,5.2,7.3,467,8.8,2.63,37,152.0,yes,
2183,GODAVARI AT NANDUR- MADMESHWAR DAM.,21.7468548,74.123996,Mumbai,MAHARASHTRA,25.3,6.4,7.6,359,4.1,1.91,16,55.0,yes,
2181,"GODAVARI AT KAPILA- GODAVARI CONFLUENCE POINT, TAPOVAN.",19.1826848,72.8594865,Mumbai,MAHARASHTRA,25.6,3.9,7.4,571,13.9,2.84,35,165.0,yes,
2180,GODAVARI RIVER NEAR TAPOVAN,19.1826848,72.8594865,Mumbai,MAHARASHTRA,25.6,4.2,7.5,511,12.9,2.81,45,194.0,yes,
1096,GODAVARI AT PANCHAVATI AT RAMKUND,18.5503581,75.714978,Mumbai,MAHARASHTRA,26.0,5.2,7.5,344,9.5,1.88,28,160.0,yes,
1211,GODAVARI AT NASIK D/S,19.9974533,73.7898023,Mumbai,MAHARASHTRA,25.8,4.8,7.3,383,11.2,1.89,25,103.0,yes,
1095,"GODAVARI AT U/S OF GANGAPUR DAM,NASIK",19.9974533,73.7898023,Mumbai,MAHARASHTRA,25.0,6.5,7.5,201,4.2,1.27,11,34.0,yes,
2160,"GODAVARI AT U/S OF AURANGABAD RESERVOIR, KAIGAON TOKKA NEAR KAIGAON BRIDGE.",19.8761653,75.3433139,Mumbai,MAHARASHTRA,28.4,6.3,8.1,970,4.8,1.35,3,85.0,no,
2158,GODAVARI AT U/S OF PAITHAN AT PAITHAN INTAKE PUMP HOUSE AT JAYAKWADI .,19.4779213,75.3656298,Mumbai,MAHARASHTRA,27.3,6.8,8.1,537,4.4,1.23,3,84.0,no,
2159,GODAVARI  AT D/S OF PAITHAN AT PATHEGAON BRIDGE.,19.46651,75.3975,Mumbai,MAHARASHTRA,27.4,6.4,8.1,733,5.1,1.87,3,98.0,no,
2161,"GODAVARI AT JALNA INTAKE WATER PUMP HOUSE, SHAHABAD.",18.958037,72.820653,Mumbai,MAHARASHTRA,27.6,6.1,8.0,935,6.2,2.10,3,83.0,yes,
12,GODAVARI AT DHALEGAON,19.2529872,76.4335092,Mumbai,MAHARASHTRA,25.6,6.6,7.9,642,4.9,1.40,2,76.0,yes,
1210,GODAVARI AT NANDED,19.1605101,77.3105444,Mumbai,MAHARASHTRA,29.7,6.6,8.1,582,4.4,1.52,3,103.0,no,
1209,GODAVARI AT RAHER,34.0973756,74.8271654,Mumbai,MAHARASHTRA,30.2,6.2,8.1,569,4.5,1.81,3,103.0,no,
2157,GODAVARI AT LATUR WATER INTAKE NEAR PUMP HOUSE AT DHAMEGAON.,19.7297859,73.7577867,Mumbai,MAHARASHTRA,27.4,6.8,7.8,432,4.2,1.05,3,82.0,yes,
2360,"GODAVARI AT BASARA, ADILABAD",19.0809075,79.5603439,Hyderabad,ANDHRA PRADESH,26.6,5.7,8.1,477,2.2,1.78,14,188.0,no,
2361,"GODAVARI  AT MANCHERIAL, NEAR RLY BDG B/C OF RALLAVAGU",19.0623704,72.8410241,Hyderabad,ANDHRA PRADESH,24.8,8.0,8.0,481,2.3,0.31,76,854.0,no,
2362,"GODAVARI AT RAMAGUNDAM D/S, NEAR FCI INTAKE WELL, KARIMNAGAR",18.4385553,79.1288412,Hyderabad,ANDHRA PRADESH,24.8,8.6,8.2,522,3.1,0.30,26,1056.0,no,
2363,"GODAVARI AT GODAVARIKHANI, NEAR BATHING GHAT, KARIMNAGAR",18.4385553,79.1288412,Hyderabad,ANDHRA PRADESH,24.8,7.7,8.1,565,4.8,0.80,265,1600.0,no,
2364,"GODAVARI AT RAMAGUNDAM U/S , KARIMNAGAR",18.4385553,79.1288412,Hyderabad,ANDHRA PRADESH,24.6,8.0,8.2,480,2.2,0.28,127,1182.0,no,
2356,"GODAVARI,  D/S OF RAMANUGUNDAM",18.7595503,79.4816378,Hyderabad,ANDHRA PRADESH,24.9,7.9,8.1,514,3.2,0.27,43,1600.0,no,
2365,"GODAVARI AT KAMALPUR U/S M/S AP RAYONS LTD. INTAKE WELL, WARANGAL",17.9689008,79.5940544,Hyderabad,ANDHRA PRADESH,26.5,6.8,7.9,338,1.7,0.23,98,1196.0,yes,
2366,"GODAVARI AT KAMALPUR D/S AT M/S. AP RAYONS LTD. DISCHARGE POINT, WARANGAL",17.9689008,79.5940544,Hyderabad,ANDHRA PRADESH,27.6,6.5,8.0,342,1.5,0.30,161,1188.0,no,
13,GODAVARI AT MANCHERIAL,18.8755953,79.4591378,Hyderabad,ANDHRA PRADESH,25.1,8.1,8.2,481,2.3,0.26,89,1380.0,no,
2367,"GODAVARI AT BHADRACHALAM U/S BATHING GHAT, KHAMMAM",17.2472528,80.1514446,Hyderabad,ANDHRA PRADESH,20.0,5.5,7.7,331,0.6,0.26,4,1200.0,yes,
2368,"GODAVARI AT BHADRACHALAM D/S BATHING GHAT, KHAMMAM",17.2472528,80.1514446,Hyderabad,ANDHRA PRADESH,20.0,5.7,7.6,344,0.7,0.27,5,1308.0,yes,
2369,"GODAVARI AT BURGAMPAHAD, KHAMMAM",17.2472528,80.1514446,Hyderabad,ANDHRA PRADESH,20.0,5.0,7.1,671,0.7,0.32,5,1325.0,yes,
2370,GODAVARI AT RAJAMUNDRY U/S OF NALLA CHANNEL,17.0005383,81.8040344,Hyderabad,ANDHRA PRADESH,26.3,6.4,7.5,255,1.1,1.74,3,525.0,yes,
14,GODAVARI AT POLAVARAM,17.2478932,81.6432353,Hyderabad,ANDHRA PRADESH,26.2,6.7,7.8,244,1.0,1.20,3,330.0,yes,
1218,GODAVARI AT RAJAHMUNDRY U/S,17.0005383,81.8040344,Hyderabad,ANDHRA PRADESH,25.6,6.4,7.7,248,1.1,1.49,3,428.0,yes,
2371,GODAVARI AT RAJAMUNDRY D/S OF NALLA CHANNEL,17.0005383,81.8040344,Hyderabad,ANDHRA PRADESH,26.4,6.2,7.4,268,1.2,1.96,3,984.0,yes,
1219,GODAVARI AT RAJAHMUNDRY D/S,17.0005383,81.8040344,Hyderabad,ANDHRA PRADESH,25.6,6.3,7.6,307,1.3,1.90,3,793.0,yes,
1854,"INDRAVATI A/C DANTEWADA RIVER, NELSONNAR, DANTEWADA.",18.8456296,81.3839325,Raipur,CHHATTISGARH,25.8,7.7,7.6,,1.2,,,7.0,yes,
1856,SHANKNI A/C DANKANI RIVER ,18.8456296,81.3839325,Raipur,CHHATTISGARH,25.8,7.7,7.7,,1.2,,,10.0,yes,
2673,"MANJRA AT D/S OF LATUR, NEAR LATUR- NANDED BRIDGE ",18.4087934,76.5603828,Mumbai,MAHARASHTRA,27.4,6.0,8.0,540,4.7,1.88,3,100.0,yes,
2374,MANJEERA AT GOWDICHARLA B/C WITH NAKKAVAGU,17.6387282,78.1486044,Hyderabad,ANDHRA PRADESH,26.3,6.2,8.2,394,1.9,0.79,10,106.0,no,
2375,MANJEERA AT GOWDICHARLA A/C WITH NAKKAVAGU,17.6387282,78.1486044,Hyderabad,ANDHRA PRADESH,26.5,5.6,7.7,652,3.2,3.44,25,149.0,yes,
1781,MANJEERA NR GANAPATHI SUGARS ,17.6387282,78.1486044,Hyderabad,ANDHRA PRADESH,26.8,5.8,8.1,421,2.2,0.72,26,186.0,no,
1157,MANJERA AT RAIPALLU,17.6387282,78.1486044,Hyderabad,ANDHRA PRADESH,26.8,5.3,8.1,393,2.2,0.92,15,148.0,no,
1891,MANJIRA AT D/S IN INTAKE POINT TO BIDAR CITY,17.6387282,78.1486044,Bengaluru,KARNATAKA,27.3,7.9,7.9,,2.1,0.66,489,1396.0,yes,
1215,MANER AT WARANGAL U/S,17.9689008,79.5940544,Hyderabad,ANDHRA PRADESH,30.5,7.0,7.9,492,4.2,3.00,543,1160.0,yes,
1158,MANER AT SOMNAPALLI,16.483167,81.8514639,Hyderabad,ANDHRA PRADESH,24.5,8.9,8.1,430,2.6,0.30,96,1130.0,no,
2719,"WARDHA AT D/S OF ERAI RIVER, HADASTI, CHANDRAPUR",18.953437,72.841544,Mumbai,MAHARASHTRA,20.2,5.5,7.8,791,14.9,3.75,173,238.0,yes,
2720,"WARDHA AT U/S OF ERAI RIVER HADASTI,CHANDRAPUR",18.953437,72.841544,Mumbai,MAHARASHTRA,20.2,6.0,8.0,697,6.0,2.20,64,139.0,yes,
2721,"WARDHA AT U/S OF ACC GHUGGUS. ,CHANDRAPUR",18.953437,72.841544,Mumbai,MAHARASHTRA,19.0,5.9,7.8,621,5.3,1.31,49,121.0,yes,
2174,WARDHA D/S OF ACC GHUGGUS.,18.953437,72.841544,Mumbai,MAHARASHTRA,19.5,5.3,7.8,654,6.2,1.29,62,163.0,yes,
2156,WARDHA AT CONFLUENCE POINT OF PENGANGA & WARDHA AT JUAD.,20.5162956,76.0380506,Mumbai,MAHARASHTRA,20.0,5.5,7.9,893,6.6,2.43,51,117.0,yes,
1212,WARDHA AT RAJURA BRIDGE,19.7760932,79.3549454,Mumbai,MAHARASHTRA,18.2,5.8,8.0,554,5.4,1.30,69,155.0,yes,
1213,WAINGANGA AT BALAGHAT,21.812876,80.183829,Bhopal,MADHYA PRADESH,21.5,7.8,7.6,505,1.7,0.98,,81.0,yes,
1214,WAINGANGA AT CHINDWARA,22.057437,78.938172,Bhopal,MADHYA PRADESH,22.5,7.8,7.5,495,1.9,0.99,,100.0,yes,
1910,WAINGANGA A/ C WITH KANHAN,22.057437,78.938172,Mumbai,MAHARASHTRA,21.6,6.1,8.0,562,5.3,1.92,66,194.0,yes,
2173,WAINGANGA U/S OF ELLORA PAPER MILL.,21.1440674,79.0835141,Mumbai,MAHARASHTRA,22.5,5.9,8.0,495,5.0,1.24,69,186.0,yes,
2172,WAINGANGA D/S OF ELLORA PAPER MILL.,21.1440674,79.0835141,Mumbai,MAHARASHTRA,23.0,5.3,7.9,541,6.2,1.40,85,235.0,yes,
2175,"WAINGANGA U/S OF GAURAV PAPER MILLS, NEAR JACKWELL.",21.2440606,81.6504253,Mumbai,MAHARASHTRA,19.1,5.9,7.9,573,5.3,1.46,64,152.0,yes,
2176,"WAINGANGA D/S OF GAURAV PAPER MILLS, NEAR JACKWELL.",21.2440606,81.6504253,Mumbai,MAHARASHTRA,18.3,5.4,7.9,622,6.7,1.47,99,248.0,yes,
11,WAINGANGA  AT ASHTI,18.8043913,75.1680394,Mumbai,MAHARASHTRA,19.7,6.0,7.8,644,5.0,1.34,84,200.0,yes,
1908,KOLAR B/C TO KANHAN AT KAMPTEE,21.2275312,79.1900834,Mumbai,MAHARASHTRA,22.2,5.5,7.9,740,5.4,1.66,89,184.0,yes,
1909,KANHAN D/S OF NAGPUR,21.1458004,79.0881546,Mumbai,MAHARASHTRA,21.7,5.3,7.8,688,7.2,1.27,51,178.0,yes,
2170,"KANHAN U/S OF M/S VIDHARBHA PAPER MILL, SINORA.",21.2894283,77.918174,Mumbai,MAHARASHTRA,20.8,5.6,7.9,561,5.6,1.48,55,145.0,yes,
2171,"KANHAN D/S OF M/S VIDHARBHA PAPER MILL, SINORA.",21.2894283,77.918174,Mumbai,MAHARASHTRA,21.9,5.0,7.9,591,6.6,1.68,82,245.0,yes,
1913,PURNA AT DHUPESHWAR,22.782275,86.146974,Mumbai,MAHARASHTRA,20.6,5.4,8.1,895,6.9,2.14,91,284.0,no,
2700,"PURNA NR ACHALPUR-AMRAVATI RD BDG, ASEGAON, CHANDUR BAZAR, AMRAVATI",21.2338919,77.7394855,Mumbai,MAHARASHTRA,19.6,6.2,8.4,780,4.9,2.05,94,224.0,no,
1315,NIRA AT PULGAON COTTON MILL,20.7237577,78.3216328,Mumbai,MAHARASHTRA,21.2,5.8,8.0,524,5.9,1.39,63,207.0,no,
2372,"KINNERASANI A/C OF KTPS ASH POND EFFLUENTS, KHAMMAM",17.2472528,80.1514446,Hyderabad,ANDHRA PRADESH,20.0,5.9,7.7,431,0.6,0.33,5,1250.0,yes,
2373,"SABARI AT KUNAVARAM, KHAMMAM",17.2472528,80.1514446,Hyderabad,ANDHRA PRADESH,20.3,6.1,7.3,119,0.5,0.10,2,200.0,yes,
2657,"BINDUSARA AT BEED, NR INTAKE WATER PUMP HOUSE DAM ",18.9890893,75.7600784,Mumbai,MAHARASHTRA,26.2,6.6,7.9,861,4.4,2.42,4,113.0,yes,
2660,"DARNA AT CHEHEDI PUMPING ST, ",20.000747,73.9363495,Mumbai,MAHARASHTRA,25.7,6.2,7.7,330,5.0,1.13,15,38.0,yes,
2661,"DARNA ASWALI (DARNA DAM), LGATPURI, NASHIK",19.9974533,73.7898023,Mumbai,MAHARASHTRA,25.1,6.2,7.6,267,4.6,1.06,11,30.0,yes,
2662,"DARNA AT MES SITE PUMPING STATION, BHAGUR, NASHIK",19.881523,73.838965,Mumbai,MAHARASHTRA,25.1,6.3,7.8,197,4.2,1.27,18,44.0,yes,
2663,"DARNA RIVER AT BHAGUR PUMPING STATION NR PANDHURLI BDG, BHAGUR, NASHIK",19.881523,73.838965,Mumbai,MAHARASHTRA,25.2,6.4,7.7,261,3.9,1.44,13,36.0,yes,
2664,"DARNA AT SANSARI , NASHIK",19.881523,73.838965,Mumbai,MAHARASHTRA,25.4,6.1,7.6,287,5.0,1.87,16,40.0,yes,
2697,"PENGANGA NEAR WATER SUPPLY SCHEME OF UMARKHED MC BELKHED, UMARKHED, YAVATMAL",19.5975885,77.6916128,Mumbai,MAHARASHTRA,20.0,5.7,7.9,760,5.6,1.78,34,96.0,yes,
50,CAUVERY AT METTUR,11.7862533,77.8007853,Chennai,TAMILNADU,27.9,6.5,8.1,417,1.5,0.20,166,334.0,no,
1322,CAUVERY AT 1KM. D/S OF BHAVANI RIVER CONFL,11.4813272,77.2555803,Chennai,TAMILNADU,28.4,6.2,8.0,475,1.1,0.25,163,324.0,no,
51,CAUVERY AT PALLIPPALAYAM,11.3749976,77.7509302,Chennai,TAMILNADU,26.7,6.7,7.9,425,1.2,0.20,307,543.0,yes,
1320,CAUVERY AT ERODE NEAR CHIRAPALAYAM,11.093394,77.843517,Chennai,TAMILNADU,28.5,5.6,7.7,475,1.7,0.25,388,673.0,yes,
1323,CAUVERY AT VELORE NEAR KATTIPALAYAM,11.5087638,78.0673326,Chennai,TAMILNADU,26.2,6.9,7.9,442,1.3,0.17,171,347.0,yes,
3015,"CAUVERY AT PUGALUR, KARUR",11.5087638,78.0673326,Chennai,TAMILNADU,28.9,7.4,8.2,727,1.2,0.22,161,323.0,no,
1324,CAUVERY AT MOHANUR NEAR PATTAIPALAYAM,11.0598753,78.1421904,Chennai,TAMILNADU,25.8,6.8,7.8,500,1.3,0.16,177,368.0,yes,
1451,CAUVERY AT THIRUMUKKUDAL-CONFL. PT.OF R. AMRAVATI,10.9644458,78.1779862,Chennai,TAMILNADU,28.0,6.5,8.1,635,0.8,0.17,160,325.0,no,
31,CAUVERY AT MUSIRI,10.9548837,78.443932,Chennai,TAMILNADU,28.3,8.0,8.1,598,0.9,0.18,144,303.0,no,
3016,"CAUVERY AT PETTAIVAITHALAI, TRICHY",10.901053,78.489401,Chennai,TAMILNADU,27.8,7.6,7.8,670,0.9,0.23,151,305.0,yes,
1202,CAUVERY AT TIRUCHIRAPPALLI U/S,10.7904833,78.7046725,Chennai,TAMILNADU,27.6,7.6,8.2,576,0.8,0.20,144,287.0,no,
1325,CAUVERY AT TIRUCHIRAPPALLI D/S,10.7904833,78.7046725,Chennai,TAMILNADU,26.6,6.1,8.0,739,1.9,0.16,255,460.0,no,
1203,"CAUVERY AT TRICHY,GRAND ANAICUT",10.7904833,78.7046725,Chennai,TAMILNADU,26.0,6.4,8.1,752,1.9,0.20,300,503.0,no,
1206,CAUVERY AT THANJAVUR,10.7869994,79.1378273,Chennai,TAMILNADU,28.2,6.5,8.0,657,1.3,0.21,154,317.0,no,
3018,"CAUVERY AT MAYILADUTHURAI, NAGAPATTINAM",11.1018399,79.6522218,Chennai,TAMILNADU,24.3,6.8,8.1,576,1.9,0.22,165,319.0,no,
3012,"CAUVERY AT KOMARAPALAYAM, NAMAKAL",11.4466642,77.6943353,Chennai,TAMILNADU,26.8,6.4,7.8,431,1.3,0.25,178,348.0,yes,
3013,"CAUVERY AT URRACHIKOTTAI, ERODE",10.5082216,77.2286601,Chennai,TAMILNADU,27.5,5.8,7.9,290,1.2,0.19,134,288.0,yes,
3014,"CAUVERY AT VAIRAPALAYAM, NAMAKAL",11.3590264,77.718739,Chennai,TAMILNADU,26.9,6.9,7.8,399,1.9,0.21,169,352.0,yes,
3017,"CAUVERY AT KUMBAKONAM, THANJAVUR",10.7869994,79.1378273,Chennai,TAMILNADU,27.5,7.0,8.1,513,1.7,0.22,182,864.0,no,
1326,CAUVERY AT COLEROON,11.1116748,79.2079168,Chennai,TAMILNADU,31.5,8.1,8.0,1133,0.8,0.20,148,303.0,no,
1327,CAUVERY AT PITCHAVARAM,11.4225542,79.7748374,Chennai,TAMILNADU,31.8,7.8,8.1,1073,1.6,0.16,148,288.0,no,
1893,YAGACHI NEAR PUMPING STATION. HASSAN CITY,12.9682208,80.1445225,Bengaluru,KARNATAKA,25.0,7.3,7.8,345,1.3,0.12,798,1600.0,yes,
1199,HEMAVATI AT D/S OF HOLENARASIPURA TOWN AT RAMADEVALA WEIR,12.784906,76.243566,Bengaluru,KARNATAKA,24.3,7.1,7.6,325,1.3,0.15,815,1600.0,yes,
1200,"SHIMSHA AT D/S OF HIGHWAY BRIDGE, YEDIYAR",12.9311652,77.5723302,Bengaluru,KARNATAKA,28.3,6.7,7.5,571,2.5,1.38,19,39.0,yes,
1166,"SHIMSHA AT D/S OF BRIDGE, HALAGUR",12.422764,77.226145,Bengaluru,KARNATAKA,27.0,7.1,8.3,556,1.0,0.71,1600,1600.0,no,
1165,ARKAVATHI AT D/S OF KANAKAPURA TOWN,12.546222,77.419875,Bengaluru,KARNATAKA,27.0,3.7,7.7,1000,2.1,21.34,30,70.0,yes,
2778,ARKAVATHI AT T.G. HALLI RESERVOIR,12.9742475,77.3475174,Bengaluru,KARNATAKA,26.5,6.1,8.2,934,3.6,3.37,17,54.0,no,
2779,ARKAVATHI AT HESARAGHATTA RESERVOIR,13.15,77.49,Bengaluru,KARNATAKA,25.5,9.9,9.6,545,2.5,5.76,9,18.0,no,
1196,LAKSHMANTIRTHA  AT D/S OF HUNSUR TOWN,12.3009419,76.2884592,Bengaluru,KARNATAKA,26.5,4.5,7.6,502,3.0,0.74,1600,1600.0,yes,
2772,LAKSHMANTIRTHA  AT D/S OF KATTEMALAVADI,12.3009419,76.2884592,Bengaluru,KARNATAKA,27.7,4.3,7.8,557,2.7,0.96,1600,1600.0,yes,
1207,KABBANI AT MUTHANKARA,11.982072,76.377185,Thiruvananthapuram,KERALA,24.6,6.7,7.0,76,0.7,0.32,283,435.0,yes,
1197,KABBANI AT SARAGUR VILLAGE D/S,12.0071037,76.3897733,Bengaluru,KARNATAKA,24.8,6.8,8.1,146,1.0,0.17,1600,1600.0,no,
41,KABBANI AT CAUSE WAY  SATTUR,15.4153155,75.0435916,Bengaluru,KARNATAKA,26.5,6.9,8.0,282,1.0,0.35,1600,1600.0,yes,
1445,KABBANI AT WATER INTAKE OF KIADB AT NANJANGUD,12.1199769,76.6800929,Bengaluru,KARNATAKA,26.8,7.4,8.0,295,1.0,0.36,1600,1600.0,yes,
2775,"KABINI AT BATHING GHAT, NANJANAGUD",12.1199769,76.6800929,Bengaluru,KARNATAKA,26.7,5.8,7.6,277,1.9,0.43,1600,1600.0,yes,
1208,BHAVANI AT ELACHIVAZHY,11.1839864,76.7037078,Thiruvananthapuram,KERALA,24.6,7.1,7.3,110,0.4,0.31,195,315.0,yes,
1201,BHAVANI AT PATHIRAKALIAMMAN KOIL,9.744362,77.290796,Chennai,TAMILNADU,26.2,8.1,8.1,276,0.8,0.29,107,220.0,no,
1204,BHAVANI AT SIRUMUGAI,11.3181162,77.0132642,Chennai,TAMILNADU,26.3,8.0,8.0,193,0.9,0.18,102,219.0,no,
1321,BHAVANI AT BHAVANI SAGAR,11.4709508,77.1142816,Chennai,TAMILNADU,27.6,6.7,8.0,255,1.0,0.18,129,285.0,yes,
1205,BHAVANI AT BHAVANI,11.4500967,77.6822442,Chennai,TAMILNADU,27.6,5.9,8.0,343,1.3,0.17,168,348.0,yes,
3019,"BHAVANI AT D/S OF BHAVANISAGAR, SATHYAMANGALAM, ERODE",11.504776,77.238394,Chennai,TAMILNADU,27.4,6.7,7.9,237,0.9,0.16,141,278.0,yes,
1319,AMRAVATI AT 1KM D/S FROM EFF.DIS. PT. AT MADHUTHUKKULAM,10.5595839,77.365461,Chennai,TAMILNADU,25.2,7.6,7.9,186,1.0,0.15,101,211.0,yes,
3020,"U/S OF KALINGARAYAN CANAL (B5), ERODE",11.2525374,77.8001197,Chennai,TAMILNADU,28.1,5.8,8.0,423,1.3,0.26,145,289.0,yes,
3021,"D/S OF KALINGARAYAN CANAL (B10), ERODE",11.2525374,77.8001197,Chennai,TAMILNADU,28.2,5.1,7.9,501,1.8,0.21,177,369.0,yes,
3024,"SARABANGA AT SALEM, D/S OF TEXTILE DYEING INDUSTRIES EFFLUENT",11.5823377,77.8421581,Chennai,TAMILNADU,27.9,2.9,7.6,3413,35.0,0.43,180667,306750.0,yes,
3022,"THIRUMANIMUTHAR AT SALEM,  D/S OF SAGO & TEXTILE DYING INDUSTRIES",11.6759949,78.1915908,Chennai,TAMILNADU,27.6,2.0,7.5,2306,40.3,0.51,209617,351617.0,yes,
1450,"PALAR AT VANIYAMBADI WATER SUPPLY HEAD WORK, TAMILNADU",12.6950325,78.6218853,Chennai,TAMIL NADU,28.4,6.3,7.6,830,1.8,0.24,738,2020.0,yes,
1159,"TAMBIRAPARANI AT BDG.NR. MADURA COATS LTD.PAPAVINASAM,TAMILNADU",8.71313,77.365461,Chennai,TAMIL NADU,24.0,7.4,7.6,104,1.2,0.09,37,94.0,yes,
1160,"TAMBIRAPARANI AT CHERANMADEVI,CAUSE WAY,TAMILNADU",8.6747284,77.565838,Chennai,TAMIL NADU,25.6,7.1,7.7,103,1.2,0.21,63,131.0,yes,
1161,"TAMBIRAPARANI AT TIRUNELVELI, COLLECTORATE,TAMILNADU.",8.6967761,77.721515,Chennai,TAMIL NADU,26.4,6.4,7.7,140,2.0,0.16,192,368.0,yes,
1162,"TAMBIRAPARANI AT MURAPPANADU, TAMILNADU",8.7170199,77.831725,Chennai,TAMIL NADU,29.4,6.6,7.0,342,1.3,0.11,52,103.0,yes,
1328,"TAMBIRAPARANI AT PAPPANKULAM,TAMILNADU",8.7791961,77.425014,Chennai,TAMIL NADU,25.2,7.2,7.7,87,1.1,0.14,49,113.0,yes,
1329,"TAMBIRAPARANI AT RAIL BDG. NR. AMBASAMUDAM, TAMILNADU",8.709317,77.452986,Chennai,TAMIL NADU,24.1,7.2,7.5,88,1.1,0.12,41,96.0,yes,
1330,"TAMBIRAPARANI AT ARUMUGANERI, TAMILNADU",8.5681265,78.093717,Chennai,TAMIL NADU,29.0,6.9,7.6,787,3.2,0.14,82,178.0,yes,
3025,"TAMBIRAPARANI AT ERAL, THOTHUKUDI, TAMILNADU",8.6266415,78.023819,Chennai,TAMIL NADU,29.3,6.9,7.2,338,1.3,0.13,70,135.0,yes,
3026,"TAMBIRAPARANI AT KALLIDAI KURICHI, TIRUNELVELI, TAMILNADU",8.682952,77.465075,Chennai,TAMIL NADU,24.3,7.6,7.6,86,1.7,0.10,45,103.0,yes,
3027,"TAMBIRAPARANI AT SRIVAIKUNTAM, D/S OF SK ANAICUT, TIRUNELVELI, TAMILNADU",8.6312152,77.91246,Chennai,TAMIL NADU,29.3,6.4,7.0,264,1.3,0.13,82,160.0,yes,
3028,"TAMBIRAPARANI AT VELLAKOIL, TIRUNELVELI, TAMILNADU",10.9459614,77.7125767,Chennai,TAMIL NADU,26.8,6.2,7.6,170,1.8,0.23,133,277.0,yes,
3029,"TAMBIRAPARANI AT SIVALAPERI, CONFLUENCE POINT OF KUTTRALAM FALLS, D/S OF PALAYAMKOTTAI, TIRUNELVELI, TAMILNADU",8.933913,77.27804,Chennai,TAMIL NADU,27.0,6.3,7.6,200,2.0,1.42,143,298.0,yes,
3023,"VASISTA AT SALEM, D/S OF SAGO INDUSRIES EFFLUENT, TAMILNADU",11.699105,78.163524,Chennai,TAMIL NADU,30.0,2.5,7.3,1761,139.8,0.40,278417,472250.0,yes,
1385,SASTHAMCOTTA LAKE,9.03559,76.63693,Thiruvananthapuram,KERALA,27.1,6.6,6.9,56,0.5,0.40,190,550.0,yes,
1441,ASHTHAMUDI LAKE AT QUILON,8.9591853,76.57772,Thiruvananthapuram,KERALA,27.7,5.3,7.5,20434,2.5,1.22,170,468.0,yes,
1574,PARAVUR,8.814188,76.66726,Thiruvananthapuram,KERALA,27.4,6.2,7.3,8862,1.6,0.84,158,480.0,yes,
1575,KOCHI (OIL TANKER JETTY),9.9312328,76.267304,Thiruvananthapuram,KERALA,29.0,5.1,7.5,25948,2.4,0.41,1150,3575.0,yes,
1576,THEKKADY,9.6031088,77.161458,Thiruvananthapuram,KERALA,25.6,6.9,7.4,42,0.5,0.15,900,1400.0,yes,
1577,KODUNGALLOOR,10.2244299,76.1977736,Thiruvananthapuram,KERALA,28.0,6.3,7.3,18554,1.8,0.32,1248,1950.0,yes,
1578,KAYAMKULAM,9.1843659,76.515155,Thiruvananthapuram,KERALA,26.8,6.1,7.0,25325,2.6,0.12,245,600.0,yes,
1579,ALAPPUZHA,9.498066,76.33884,Thiruvananthapuram,KERALA,26.1,5.9,6.7,477,2.0,0.25,725,2425.0,yes,
1580,POOKOTE,11.5424566,76.0272233,Thiruvananthapuram,KERALA,23.9,6.7,6.5,25,0.8,0.08,6,40.0,yes,
2312,VEMBANADU AT PATHIRAMANAL (ALAPPUZHA),9.6188401,76.385285,Thiruvananthapuram,KERALA,26.6,6.8,6.8,740,1.6,0.20,193,381.0,yes,
2318,PAZHASSI RESERVOIR (KANNUR),11.8744775,75.3703662,Thiruvananthapuram,KERALA,29.0,7.5,7.4,51,1.0,0.15,76,283.0,yes,
2325,POND AT (PADMANABHA) SREE PADMANABHA SWAMY TEMPLE (TVPM),8.4827779,76.9435906,Thiruvananthapuram,KERALA,27.8,7.5,7.6,244,3.3,0.13,503,1525.0,yes,
2328,RSVR AT MALAMPUZHA,10.8280802,76.7368037,Thiruvananthapuram,KERALA,25.5,7.1,7.5,96,0.6,0.15,406,885.0,yes,
2329,RSVR AT BHOOTHATHANKETU,10.1334101,76.6626344,Thiruvananthapuram,KERALA,26.2,7.9,7.1,27,1.0,0.09,57,170.0,yes,
2330,RSVR AT EDAMALAYAR,10.2107896,76.7113372,Thiruvananthapuram,KERALA,27.8,8.0,7.1,25,1.0,0.79,101,183.0,yes,
1396,OSTERI LAKE,11.9577385,79.7455956,Pondicherry,PONDICHERRY,29.5,30.4,8.0,231,1.5,0.10,7,170.0,no,
1686,BAHOUR LAKE,11.8251336,79.7371832,Pondicherry,PONDICHERRY,29.0,5.2,8.1,413,1.7,0.05,,,no,
1420,KODAI KANAL LAKE,10.2343586,77.4863295,Chennai,TAMILNADU,19.3,6.5,6.5,111,5.7,0.14,6,12.0,yes,
1421,UDHAGAMADALEM LAKE (OOTY),11.4051576,76.6885526,Chennai,TAMILNADU,18.9,4.8,7.6,407,10.1,0.78,6148,13351.0,yes,
1452,"YERCAUD LAKE, SALEM",11.7841423,78.2102296,Chennai,TAMILNADU,24.5,7.7,8.0,249,1.5,0.40,186,371.0,no,
3007,VEERANAM LAKE AT CUDDALORE,11.3216231,79.5434841,Chennai,TAMILNADU,32.0,7.9,8.3,487,1.5,0.21,137,282.0,no,
3008,POONDI LAKE AT THIRUVALLUR,13.1857721,79.8576828,Chennai,TAMILNADU,,6.0,8.2,562,2.2,0.15,2086,3974.0,no,
3009,REDD HILLS AT THIRUVALLUR,13.2063077,80.0687731,Chennai,TAMILNADU,,6.2,7.9,484,1.9,0.25,2068,5422.0,yes,
3010,PORUR LAKE AT THIRUVALLUR,13.034421,80.148091,Chennai,TAMILNADU,23.6,6.2,8.3,475,2.7,0.17,1524,3650.0,no,
3011,PULICATE LAKE AT THIRUVALLUR,13.5592628,80.2098218,Chennai,TAMILNADU,,5.5,8.1,38488,3.3,0.64,176,567.0,no,
1414,PUSHKAR LAKE,26.4871515,74.5540177,Jaipur,RAJASTHAN,22.4,4.8,7.9,435,4.4,0.24,5,44.0,yes,
1481,FATEH SAGAR LAKE AT UDAIPUR INTAKE POINT OF PHED,24.6013999,73.6742232,Jaipur,RAJASTHAN,22.9,6.0,8.3,578,1.4,0.26,5,26.0,no,
1714,KAYALANA JHEEL JODHPUR,26.3018693,72.9718923,Jaipur,RAJASTHAN,22.8,6.1,8.0,358,1.2,0.62,4,17.0,yes,
1716,"NAKKI LAKE, MT. ABU",24.5945112,72.7062297,Jaipur,RAJASTHAN,21.2,5.0,7.8,481,1.6,0.31,3,220.0,yes,
2935,"LAKE JET SAGAR, BUNDI",25.4572342,75.6491753,Jaipur,RAJASTHAN,25.8,4.6,7.7,458,1.8,0.35,5,22.0,yes,
2936,"JAISAMAND LAKE, ALWAR",27.4925186,76.5856658,Jaipur,RAJASTHAN,28.2,4.3,7.8,405,13.3,0.51,6,15.0,yes,
2937,"LAKE SILISERH, ALWAR",27.4925186,76.5856658,Jaipur,RAJASTHAN,29.0,5.0,8.0,359,4.0,0.23,5,15.0,yes,
2938,"LAKE RAJSAMAND, RAJSAMAND- POINT NO. 1, RAJSAMAND",25.0746938,73.8860099,Jaipur,RAJASTHAN,25.0,6.0,8.0,571,1.0,1.00,5,44.0,yes,
2939,"LAKE RAJSAMAND, RAJSAMAND- POINT NO. 2, RAJSAMAND",25.0746938,73.8860099,Jaipur,RAJASTHAN,24.0,6.0,8.0,712,1.0,1.00,4,13.0,yes,
2940,"GAPE- SAGAR LAKE, DUNGARPUR",23.8396534,73.723513,Jaipur,RAJASTHAN,23.0,5.4,8.4,684,4.5,0.38,6,38.0,no,
2941,"LAKE JAISAMAND, SALUMBER, UDAIPUR, PT NO. 1",24.266667,74.0,Jaipur,RAJASTHAN,22.5,6.2,8.5,625,1.6,0.29,5,234.0,no,
2942,"LAKE JAISAMAND, SALUMBER, UDAIPUR, PT NO. 2",24.266667,74.0,Jaipur,RAJASTHAN,22.3,6.2,8.3,629,1.5,0.35,6,29.0,no,
2943,"LODHA TALAB, BANSWARA- DUNGARPUR ROAD, BANSWARA",23.5517884,74.4122575,Jaipur,RAJASTHAN,29.1,3.5,8.0,1214,6.2,0.50,6,394.0,no,
2944,"JALMAHAL, JAIPUR",26.9656041,75.8592052,Jaipur,RAJASTHAN,28.8,4.1,8.5,1862,6.6,0.96,8,158.0,no,
2046,SUKHNA LAKE,30.7421379,76.8187557,Chandigarh,CHANDIGARH,25.6,8.6,7.5,165,3.0,0.68,,,yes,
1349,BRAHMSAROVAR LAKE AT KURUKSHETRA,29.9613554,76.8285533,Chandigarh,HARYANA,21.0,6.9,7.9,260,2.3,0.36,,,yes,
1291,GOBINDSAGAR LAKE AT BILASPUR,31.404663,76.496791,Shimla,HIMACHAL PRADESH,18.0,8.8,8.1,193,0.4,0.38,342,1726.0,no,
1292,PONGDAM LAKE AT PONG VILLAGE,31.9765793,76.0507949,Shimla,HIMACHAL PRADESH,22.1,8.1,8.2,165,1.3,0.18,6,106.0,no,
1429,"RENUKA LAKE , 35 KM FROM PATNA SAHIB NORTH ",30.6101649,77.4583652,Shimla,HIMACHAL PRADESH,23.0,7.6,7.8,514,1.6,0.46,14,26.0,yes,
2649,RIWALSAR LAKE,31.6339811,76.8335346,Shimla,HIMACHAL PRADESH,20.4,1.8,7.8,228,5.6,0.98,1487,2400.0,yes,
2650,KHAZIAR LAKE,32.5461852,76.0584094,Shimla,HIMACHAL PRADESH,16.4,7.5,6.7,50,8.1,0.69,9,118.0,yes,
19,"WELL AT ELOOR, KERALA",10.06975,76.30293,Thiruvananthapuram,KERALA,26.1,6.3,6.3,174,2.4,236,779,0.06,no,
22,"WELL AT CHUNGAPALLY, KERALA",10.06975,76.30293,Thiruvananthapuram,KERALA,25.0,6.6,6.6,105,1.02,2,22,0.18,yes,
35,"WELL AT PUNALUR, KERALA",9.009768,76.92973,Thiruvananthapuram,KERALA,26.6,5.4,5.4,337,5.3,285,500,,no,
1581,"PAPPANAMKODE,THIRUVANANTHAPURAM",8.4701411,76.9787076,Thiruvananthapuram,KERALA,26.5,5.1,5.1,156,1.73,80,175,,no,
1582,"NEDUMANGAD,THIRUVANANTHAPURAM",8.6077423,77.005465,Thiruvananthapuram,KERALA,27.5,6.2,6.2,223,1.35,60,235,0.01,no,
1584,"CHERTHALA,ALLEPPY, KERALA",9.683637,76.336538,Thiruvananthapuram,KERALA,26.3,7.0,7.0,133,0.09,340,650,,yes,
1585,"VYTTILA,ERNAKULAM ",9.966654,76.316813,Thiruvananthapuram,KERALA,28.0,7.5,7.5,460,6.1,165,285,0.18,yes,
1586,EDAYAR  ERNAKULAM DISTT.,9.872489,76.551713,Thiruvananthapuram,KERALA,26.0,6.5,6.5,170,2.8,175,290,0.12,yes,
1587,KALAMASSERY ERNAKULAM ,10.057906,76.346362,Thiruvananthapuram,KERALA,26.5,7.2,7.2,891,1.6,170,290,0.08,yes,
1588,PUNKUNNAM TRISSUR DISTT. ,10.536403,76.198659,Thiruvananthapuram,KERALA,27.3,6.1,6.1,99,2.04,110,400,0.005,no,
1589,"MALAPURAM , KERALA",11.073182,76.074,Thiruvananthapuram,KERALA,28.5,6.1,6.1,290,2.65,254,365,,no,
1590,"MAVOOR, KOZHIKKODE DISTT. , KERALA",11.267459,75.942523,Thiruvananthapuram,KERALA,25.0,7.1,7.1,124,1.58,3,32,0.06,yes,
1591,KANNUR (MUNICIPALITY) KANNUR ,11.874477,75.370366,Thiruvananthapuram,KERALA,27.5,5.2,5.2,106,4.54,120,650,0.11,no,
1592,"PAYYANNUR, KANNUR DISTT. ",12.105069,75.205834,Thiruvananthapuram,KERALA,27.0,6.8,6.8,218,5.85,2,26,,yes,
2308,FATHIMAPURAM (CHANGANASSERY),9.445887,76.540965,Thiruvananthapuram,KERALA,26.1,6.8,6.8,268,0.2,270,390,,yes,
2309,KAROOR (PALA),9.737878,76.679144,Thiruvananthapuram,KERALA,26.5,6.5,6.5,88,4.59,55,90,,yes,
2310,VAIKOM,9.721645,76.392667,Thiruvananthapuram,KERALA,25.7,6.5,6.5,200,2.46,160,240,,yes,
2311,VADAVATHOOR (KOTTAYAM),9.589686,76.563273,Thiruvananthapuram,KERALA,26.2,6.4,6.4,157,2.59,205,320,,no,
2313,"SARVODAPURAM,  ALAPPUZHA",9.555005,76.317595,Thiruvananthapuram,KERALA,26.3,6.8,6.8,173,3.93,550,1150,,yes,
2314,KUREEPUZHA  (KOLLAM),8.918216,76.574302,Thiruvananthapuram,KERALA,28.3,6.6,6.6,115,0.19,300,650,,yes,
2315,K.M.M.L. (KOLLAM),9.001898,76.533474,Thiruvananthapuram,KERALA,27.9,7.2,7.2,789,2.25,140,450,,yes,
2316,CHELLORA TRENCHING GROUND (KANNUR),11.874477,75.370366,Thiruvananthapuram,KERALA,26.5,5.3,5.3,54,2.27,2,36,0.28,no,
2317,PUNNALPETTIPPALAM (TELLICHERRY MUNICIPALITY),11.753288,75.492878,Thiruvananthapuram,KERALA,27.3,6.1,6.1,282,1.93,21,656,0.03,no,
2320,MANJERI,11.120298,76.119968,Thiruvananthapuram,KERALA,28.5,6.3,6.3,174,4.72,190,340,,no,
2321,LALOOR (THRISSUR),10.51249,76.185619,Thiruvananthapuram,KERALA,28.0,5.9,5.9,245,1.65,235,940,,no,
2322,OLLUR (THRISSUR),10.480662,76.242119,Thiruvananthapuram,KERALA,28.0,5.3,5.3,230,5.65,36,225,,no,
2323,BRAHMAPURAM M.S.W. DUMPARK (ERNAKULAM),9.981636,76.299884,Thiruvananthapuram,KERALA,26.5,6.6,6.6,243,7.55,285,1155,0.12,yes,
2324,HAZARDOUS WASTE DUMP (AMBALAMUGHAL),9.971475,76.369517,Thiruvananthapuram,KERALA,27.5,7.4,7.4,315,3.5,13,71,0.22,yes,
2327,KARUKAMANI,10.695066,76.722486,Thiruvananthapuram,KERALA,24.3,7.3,7.3,701,0.85,155,400,0.22,yes,
1984,INDL. ESTATE TARAPUR,19.864915,72.684998,Mumbai,MAHARASHTRA ,27.0,7.8,7.8,1210,3.3,80,275,0.57,yes,
1985,MIRA-BHAYANDER,19.295233,72.85439,Mumbai,MAHARASHTRA ,26.0,8.1,8.1,2104,0.93,47,68,0.64,no,
1986,DAHANU,19.981065,72.745182,Mumbai,MAHARASHTRA ,27.0,7.5,7.5,699,1.31,38,93,0.69,yes,
1987,VASAI,19.391928,72.839732,Mumbai,MAHARASHTRA ,26.0,7.6,7.6,1044,0.26,22,60,0.42,yes,
1988,PALGHAR,19.693558,72.765518,Mumbai,MAHARASHTRA ,27.0,8.0,8.0,583,0.86,98,298,0.66,yes,
1989,"MSW SITE, TALOJA, RAIGAD",19.067924,73.108024,Mumbai,MAHARASHTRA ,28.0,8.2,8.2,849,0.45,50,130,0.47,no,
1990,"BMW SITE, BURUDGAON, AHMEDNAGAR",19.057256,74.738096,Mumbai,MAHARASHTRA ,,7.5,7.5,1061,0.88,-,-,0.47,yes,
1991,"MSW SITE, PATHARDI, NASIK",19.946922,73.765437,Mumbai,MAHARASHTRA ,25.5,7.6,7.6,730,49.97,19,36,0.03,yes,
1992,"MSW SITE, PIMPRI-CHINCHWAD, PUNE",18.629781,73.799709,Mumbai,MAHARASHTRA ,27.0,7.7,7.7,865,1.52,13,260,1.24,yes,
1993,"PHANDARPUR, GANGAPUR, AURANGABAD",19.876165,75.343314,Mumbai,MAHARASHTRA ,30.0,7.9,7.9,1500,0.33,2,85,0.97,yes,
1994,"TPS-DURGAPUR, CHANDRAPUR",19.97046,79.301485,Mumbai,MAHARASHTRA ,21.0,7.6,7.6,1083,23.51,23,85,0.78,yes,
1995,"KHAPERKHEDA, NAGPUR",21.2639,79.109514,Mumbai,MAHARASHTRA ,21.0,8.2,8.2,1035,1.68,26,67,0.68,no,
1996,"KORADI, NAGPUR",21.237804,79.112513,Mumbai,MAHARASHTRA ,21.0,8.1,8.1,1650,8.78,37,83,0.91,no,
1997,"RAIPUR, NAGPUR",21.077641,78.967711,Mumbai,MAHARASHTRA ,20.0,7.9,7.9,1681,9.0,40,120,0.29,yes,
1998,"BHAHMNI, KALMESHWAR, NAGPUR",21.233473,78.911851,Mumbai,MAHARASHTRA ,23.0,8.3,8.3,1202,2.24,20,55,0.99,no,
2000,"BHANDEWARI, NAGPUR",21.146174,79.162614,Mumbai,MAHARASHTRA ,21.0,8.4,8.4,1185,2.25,20,102,0.72,no,
2001,"SUKALI, AMRAVATI",20.947311,77.708006,Mumbai,MAHARASHTRA ,21.0,7.6,7.6,492,6.84,26,120,0.38,yes,
2002,"AKOT, AKOLA",21.097336,77.053568,Mumbai,MAHARASHTRA ,22.5,7.9,7.9,772,2.3,27,85,0.38,yes,
2003,"SAWARGAON, YAVATMAL",20.490738,78.478036,Mumbai,MAHARASHTRA ,19.0,7.5,7.5,648,2.18,18,77,0.22,yes,
2004,"PARVATI INDL. ESTATE, SHIROL",16.748041,74.590887,Mumbai,MAHARASHTRA ,23.0,8.0,8.0,1507,1.44,3,45,,yes,
2005,"KHANJIRENAGAR, ICHALKARANJI",16.709685,74.456775,Mumbai,MAHARASHTRA ,23.0,8.5,8.5,1560,4.23,5,75,,no,
2006,"MIDC, SHINOLI, CHENDGAD",15.874074,74.387394,Mumbai,MAHARASHTRA ,24.0,8.1,8.1,1488,4.11,4,70,,no,
2007,"SAVALI, SANGLI",16.87189,74.648826,Mumbai,MAHARASHTRA ,24.0,7.8,7.8,4405,3.95,3,95,,yes,
2008,"RASULWADI-SAMBARWADI, SANGLI",16.942147,74.673783,Mumbai,MAHARASHTRA ,23.5,8.0,8.0,4306,4.28,3,105,,yes,
2200,"BORE WELL AT KATPUR, NEAR Z.P SCHOOL.",23.803243,72.091256,Mumbai,MAHARASHTRA ,28.0,8.4,8.4,4970,1.82,3,95,1.82,no,
2201,DUG WELL AT RANJANGAON.,18.753949,74.247278,Mumbai,MAHARASHTRA ,29.0,7.6,7.6,2146,5.99,3,85,1.21,yes,
2202,"DUG WELL AT GHANE KUNT, NEAR AWASTHI, OWNED BY SHRI RAJENDRA AMRE",18.753949,74.247278,Mumbai,MAHARASHTRA ,25.5,7.9,7.9,486,13.26,3,85,,yes,
2203,HAND PUMP IN THE PREMISES OF ZILLA PARISHAD PRIMARY SCHOOL,18.531356,73.938195,Mumbai,MAHARASHTRA ,,8.0,8.0,813,2.17,,,0.52,yes,
2204,"DUG WELL AT GUNJALWADI,SAGAMNER NEAR PRIMARY HEALTH CARE CENTER.",19.431604,74.200323,Mumbai,MAHARASHTRA ,,7.5,7.5,1577,2.27,,,0.39,yes,
2816,"DUG WELL  OF  MR. SAMPAT WALUNJ, NEAR M/S MAHAJEET CLAYTON. VILLAGE- SHINDE VILLAGE,TALUKA- NASHIK, DISTRICT- NASHIK.",19.946922,73.765437,Mumbai,MAHARASHTRA ,25.5,7.7,7.7,972,0.1,14,50.5,0.13,yes,
2817,"BORE WELL  AT CHITALI NR WAGH VASTHI. CHITALI,  AHMADNAGAR.",19.685549,74.619547,Mumbai,MAHARASHTRA ,,7.4,7.4,808,6.05,,,0.61,yes,
2818,"BORE WELL AT  M/S SPECTRON ETHERS, RASEGAON NEAR SIDDESHWAR MAHADEV MANDIR.VILLAGE- RASEGAON, TALUKA- DINDORI, DISTRICT- NASHIK.",20.156499,73.746484,Mumbai,MAHARASHTRA ,26.0,7.7,7.7,957,5.05,20.5,164,0.08,yes,
2819,"DUG WELL OWNED BY SHRI DESHMUKH. VILLAGE- MALEGAON, TALUKA- BARAMATI, DISTRICT- PUNE.",18.157477,74.531681,Mumbai,MAHARASHTRA ,26.5,7.9,7.9,5760,4.25,25,275,0.99,yes,
2820,"DUG WELL OWNED BY SHRI SHIVAJI BABAN DAREKAR VILLAGE- SANASWADI, TALUKA- SHIRUR, DISTRICT- PUNE.",18.825649,74.375023,Mumbai,MAHARASHTRA ,30.0,7.4,7.4,1134,0.22,19,373,0.87,yes,
2821,"BORE WELL AT BALE RAILWAY STATION PREMISES OWNED BY  SHRI. DIGAMBAR JOSHI. VILLAGE- DAHEGAON,TALUKA- NORTH SOLAPUR, DISTRICT- SOLAPUR.",17.660047,75.904116,Mumbai,MAHARASHTRA ,25.0,7.8,7.8,2905,0.27,11,350,1.8,yes,
2822,"BORE WELL NEAR  CHINCHOLI. VILLAGE- CHINCHOLI, TALUKA- MOHOL, DISTRICT- SOLAPUR.",17.8169,75.6309,Mumbai,MAHARASHTRA ,25.0,7.5,7.5,1175,0.4,11,350,1.8,yes,
2823,"BORE WELL AT SHETE VASTI, NEAR OLD TULJAPUR ROAD. VILLAGE- TULJAPUR NAKA, TALUKA- SOLAPUR,DISTRICT- SOLAPUR.",17.65469,75.916669,Mumbai,MAHARASHTRA ,25.0,7.9,7.9,1572,0.28,17,350,1.6,yes,
2826,"DUG WELL NEAR RAILWAY STATION, COTTON MARKET. VILLAGE- WARDHA",20.745319,78.602195,Mumbai,MAHARASHTRA ,,8.5,8.5,723,10.66,,,0.49,no,
2827,BORE WELL NEAR RAILWAY CROSSING AT DONGRI BUZURG. ,21.550129,79.693987,Mumbai,MAHARASHTRA ,22.0,7.7,7.7,668,1.03,15,65,0.73,yes,
2828,"DUG WELL  NEAR JILLA PARISHET PRIMARY SCHOOL, VISAPUR. VILLAGE- VISAPUR, TALUKA- BALLARPUR,DISTRICT- CHANDRAPUR.",19.855156,79.348705,Mumbai,MAHARASHTRA ,18.0,7.7,7.7,1144,2.97,52,165,0.73,yes,
2277,WELL AT VERNA INDI.ESTATE.(M/S CIPLA LIMITED),15.368606,73.944799,Panaji,GOA,30.0,6.2,6.2,315,0.2,,19,,no,
2278,WELL AT SANCOALE INDL..ESTATE,15.383933,73.873515,Panaji,GOA,29.5,6.3,6.3,202,0.06,,80,,no,
2279,"WELL AT ZUARI IND. LTD, ZUARI NAGAR",15.374478,73.872445,Panaji,GOA,29.0,5.9,5.9,185,0.36,,17,,no,
2280,WELL AT KUDAI INDL. ESTATE(M/S CADILA HEALTHCARE LIMITED),13.092476,80.157007,Panaji,GOA,29.0,5.8,5.8,194,0.35,,4,,no,
2281,WELL AT CORLIM INDL. ESTATE,15.499056,73.932308,Panaji,GOA,28.5,6.3,6.3,50,0.56,,65,,no,
2282,WELL AT PILERNE INDL ESTATE (M/S UNICHEM ),15.527651,73.79191,Panaji,GOA,30.5,6.2,6.2,256,0.73,4,150,,no,
1950,JUNAGADH,21.522184,70.457877,Gandhinagar,GUJARAT,27.0,7.6,7.6,1180,0.12,2,2,1.15,yes,
1959,NADIAD,22.691585,72.863363,Gandhinagar,GUJARAT,28.0,8.4,8.4,1693,1.36,4,20,0.44,no,
1960,DAHOD,22.837931,74.253146,Gandhinagar,GUJARAT,28.0,8.1,8.1,754,0.52,5,13,0.03,no,
1961,GODHARA,22.778804,73.61428,Gandhinagar,GUJARAT,29.5,8.0,8.0,546,0.24,7,17,0.38,yes,
1962,VADODARA (INDUSTRIAL-NANDESARI),22.307159,73.181219,Gandhinagar,GUJARAT,27.5,8.1,8.1,2590,0.07,5,13,,no,
1964,PANDESARA (INDSTRIAL) SURAT,21.141648,72.838191,Gandhinagar,GUJARAT,29.0,7.6,7.6,12018,0.82,3,3,0.08,yes,
1965,"MORA-HAJIRA (INDUSTRIAL), HAJIRA",21.169978,72.673895,Gandhinagar,GUJARAT,27.0,8.2,8.2,2098,0.48,3,3,0.37,no,
1966,"GABHENI VILL, SURAT (INDUSTRIAL)",21.136073,72.800206,Gandhinagar,GUJARAT,29.0,8.0,8.0,2033,0.09,400,900,0.009,yes,
1968,"VAPI INDUSTRIAL AREA IN D/S, VAPI",20.371237,72.90634,Gandhinagar,GUJARAT,29.0,8.2,8.2,,0.19,,,,no,
1969,"SARIGAM VILLAGE (D/S OF INDUSTRIALAREA), VAPI",20.371237,72.90634,Gandhinagar,GUJARAT,29.0,8.2,8.2,,2.12,,,,no,
1970,"BW D/S TSDF SITE, GIDC INDUL AREA, VAPI",20.371237,72.90634,Gandhinagar,GUJARAT,29.0,8.3,8.3,,3.42,,,,no,
2084,BORE WELL OF PALSANA VILLAGE.,21.082074,72.985392,Gandhinagar,GUJARAT,28.0,8.0,8.0,1378,0.13,3,3,0.19,yes,
2088,BORE WELL OF SACHIN GIDC.,21.093078,72.857456,Gandhinagar,GUJARAT,29.0,8.0,8.0,11213,0.22,3,3,0.11,yes,
2089,"B/W NEAR INDL. AREA BORASARA & NAVAPURA, DIST. SURAT.",22.286624,73.20281,Gandhinagar,GUJARAT,30.0,8.1,8.1,2224,0.18,7,21,0.29,no,
2090,WELL AT OLPAD.,21.340137,72.755392,Gandhinagar,GUJARAT,29.0,7.8,7.8,8406,0.04,3,3,0.17,yes,
2091, BORE WELL OF NAVSARI GIDC INDUSTRIES ASSOCIATION OFFICE.,20.851232,72.909243,Gandhinagar,GUJARAT,29.0,8.1,8.1,2234,0.09,3,3,0.17,no,
2092,FROM WATER WORKS OF NAVSARI NEAR DHUDIA TALAV.,20.947713,72.926433,Gandhinagar,GUJARAT,29.0,8.0,8.0,3542,0.03,3,3,0.19,yes,
2093,BORE WELL - BARDOLI  REST HOUSE.,21.125749,73.112117,Gandhinagar,GUJARAT,30.0,8.1,8.1,1602,0.27,3,3,0.54,no,
1415,"WELL OF LOOMJI, CHAUDHARY, NEAR NAYAGAON, PALI, (U/S 1  KM. FROM PALI TOWN) ",30.776132,76.794323,Jaipur,RAJASTHAN,28.0,8.0,8.0,6600,2.67,6,240,1.58,yes,
1416,WELL (U/S 1 KM FROM JODHPUR TOWN),30.776132,76.794323,Jaipur,RAJASTHAN,24.0,8.6,8.6,12100,1.5,6,52,0.69,no,
1706,"RIICO PUMP HOUSE NEAR MONTO MOTORS, MIA, ALWAR",27.513952,76.685767,Jaipur,RAJASTHAN,30.0,7.6,7.6,1380,0.23,3,5,0.91,yes,
1707,"BORE WELL IN MODI ALKALIS & CHEMICALS, MIA, ALWAR",27.513952,76.685767,Jaipur,RAJASTHAN,32.0,7.8,7.8,1460,0.38,3,4,0.7,yes,
1708,"WELL KOTHI IN VILLAGE BAGAR RAJPUT, ALWAR",27.513952,76.685767,Jaipur,RAJASTHAN,29.0,7.6,7.6,2295,0.57,4,9,0.89,yes,
1709,"WELL AT VILLAGE SANTHLA VERY NEAR BHIWADI INDUSTRIAL AREA, BHIWADI",28.208822,76.8446,Jaipur,RAJASTHAN,30.5,7.6,7.6,2900,2.41,4,6,0.65,yes,
1710,"WELL AT VILLAGE ALUPUR, VERY NEAR BHIWADI INDUSTRIAL AREA, BHIWADI",28.208822,76.8446,Jaipur,RAJASTHAN,29.0,8.2,8.2,2070,2.94,3,5,1.14,no,
1711,"WELL AT VILLAGE HARCHANDPUR, VERY NEAR, BHIWADI TO BHIWADI INDUSTRIAL AREA, BHIWADI",28.208822,76.8446,Jaipur,RAJASTHAN,28.0,7.9,7.9,2970,0.39,3,5,1.06,yes,
1712,"WELL AT VILLAGE BHIWADI , VERY NEAR, BHIWADI TO BHIWADI INDUSTRIAL AREA, BHIWADI",28.208822,76.8446,Jaipur,RAJASTHAN,30.5,8.2,8.2,1710,0.55,3,6,0.42,no,
1713,"WELL AT VILLAGE GATTAL, NEAR, BHIWADI TO BHIWADI INDUSTRIAL AREA, BHIWADI",28.208822,76.8446,Jaipur,RAJASTHAN,29.5,7.7,7.7,1495,9.52,4,12,0.46,yes,
1715,HAND PUMP NEAR SECONDARY SCHOOL ABOUT 300mt. FROM KANSUA NALLAH KOTA,28.208822,76.8446,Jaipur,RAJASTHAN,26.3,8.5,8.5,1685,4.37,3,4,1.05,no,
1720,"CHAUDHARY KA WELL VILLAGE PANIALA, KOTAPUTALI NEAR ASSOCIATED ALCOHOL BREVERIES LTD JAIPUR",27.789803,76.228125,Jaipur,RAJASTHAN,28.0,8.0,8.0,1260,1.06,4,7,1.21,yes,
1721,"PHED WELL NEAR RAILWAY LINE JHOTAWARA, JAIPUR",26.956432,75.741253,Jaipur,RAJASTHAN,30.5,8.0,8.0,690,1.04,4,8,0.6,yes,
1722,"PHED WELL NEAR NEI, KHATIPURA",26.927714,75.759453,Jaipur,RAJASTHAN,29.0,7.4,7.4,1445,0.25,3,4,0.36,yes,
1723,HAND PUMP OF VIDHANI VILLAGE GONER ROAD JAIPUR,26.831591,75.841036,Jaipur,RAJASTHAN,30.0,7.7,7.7,3050,3.08,4,14,1.33,yes,
1724,"WELL OF GOOJARON KI TALAI, MOHANA ROAD SANGANER JAIPUR ",26.798026,75.770665,Jaipur,RAJASTHAN,30.5,8.1,8.1,1390,0.74,4,6,0.63,no,
1725,PUBLIC HAND PUMP BEFORE SANGANER PULIA,26.819003,75.796652,Jaipur,RAJASTHAN,29.5,7.4,7.4,1230,0.2,4,6,0.36,yes,
2015,"PABUPURA ROAD NEAR CIVIL AIR PORT, JODHPUR (MANGILAL RATHOR)",26.238947,73.024309,Jaipur,RAJASTHAN,23.5,7.7,7.7,2950,0.31,4,11,1.46,yes,
2016,"VILLAGE VINAYAKIA, JODHPUR (HIRALAL KUMHAR)",26.238947,73.024309,Jaipur,RAJASTHAN,23.5,7.5,7.5,2100,9.84,5,9,0.87,yes,
2017,"VILLAGE VINAYAKIA, JODHPUR (BADRI KUMHAR)",26.238947,73.024309,Jaipur,RAJASTHAN,23.0,7.5,7.5,2500,0.58,6,555,0.52,yes,
2018,"VILLAGE VINAYAKIA, JODHPUR (HUKUM SINGH RATHORE)",26.238947,73.024309,Jaipur,RAJASTHAN,24.0,7.7,7.7,4500,1.4,4,110,1.29,yes,
2019,"NEAR UIT BRIDGE, UDAIPUR",24.585445,73.712479,Jaipur,RAJASTHAN,23.0,7.5,7.5,1855,0.99,4,16,0.4,yes,
2020,"NEW FATEHPURA, 200 FT.FROM PANCHWATI NALLAH, UDAIPUR",24.585445,73.712479,Jaipur,RAJASTHAN,23.0,7.8,7.8,2300,1.29,3,7,0.47,yes,
2021,"NEAR ARVIND GENERAL STORE, ALOO FACTORY, KACCHI BASTI, SARDARPURA, UDAIPUR",26.277995,73.011094,Jaipur,RAJASTHAN,22.0,7.6,7.6,2355,3.69,4,12,0.59,yes,
2022,"NEAR RANA PRATAP NAGAR, RAILWAY STATION, UDAIPUR",26.277995,73.011094,Jaipur,RAJASTHAN,23.0,7.4,7.4,2350,5.89,5,234,1.0,yes,
2023,"HOTEL ORIENT PLACE, SUBHAS NAGAR, UDAIPUR",26.277995,73.011094,Jaipur,RAJASTHAN,22.0,7.5,7.5,2050,3.36,3,7,0.47,yes,
2024,"IN SIDE SHIV TEMPLE NEAR AIR FORCE STATION AMER ROAD, JAIPUR",26.959817,75.84446,Jaipur,RAJASTHAN,29.0,7.3,7.3,1300,2.9,4,8,1.17,yes,
2025,"NEAR SHREE KALYANESHWAR MAHADEV TEMPLE, JAI SINGH PURA KHURD, JAIPUR",26.952338,75.869942,Jaipur,RAJASTHAN,28.5,7.3,7.3,2450,0.23,4,6,0.51,yes,
2026,"NEAR FOJI NAGAR, KACCHI BASTI, AMBABARI, JAIPUR",26.944481,75.779299,Jaipur,RAJASTHAN,28.5,7.6,7.6,905,2.85,3,8,0.27,yes,
2027,"NEAR ABN CENTRAL ACADEMY, SUSILPURA, SODALA, JAIPUR",26.899033,75.764292,Jaipur,RAJASTHAN,28.0,7.8,7.8,920,0.58,3,4,0.57,yes,
2028,"NEAR SAMSHAN VISHWAKARMA NAGAR, MAHARANIFARM, JAIPUR",26.850311,75.784749,Jaipur,RAJASTHAN,28.0,7.7,7.7,1205,0.28,3,4,0.29,yes,
2029,"NEAR GANDHI BHWAN, AJMER",26.458264,74.6362,Jaipur,RAJASTHAN,22.0,7.8,7.8,685,0.15,4,8,0.23,yes,
2030,"OPPOSITE PRIVATE BUS STAND, AJMER",26.458264,74.6362,Jaipur,RAJASTHAN,23.0,7.3,7.3,3950,1.24,4,14,0.62,yes,
2031,"NEAR 9 NO. PETROL PUMP, NEAR ADARSH NAGAR GATE, AJMER",26.458264,74.6362,Jaipur,RAJASTHAN,23.0,7.5,7.5,1225,1.12,4,27,1.16,yes,
2032,"NEAR KHANPURA TALAB, AJMER",26.458264,74.6362,Jaipur,RAJASTHAN,23.0,7.6,7.6,5100,0.95,4,14,0.52,yes,
2033,"OUTSIDE JLN HOSPITAL, AJMER",26.468279,74.635422,Jaipur,RAJASTHAN,23.0,7.6,7.6,1210,1.38,6,80,0.42,yes,
2957,"WELL/ HAND PUMPS IN THE RIICO INDUSTRIAL AREA, BANSWARA",23.523831,74.426892,Jaipur,RAJASTHAN,27.0,8.2,8.2,900,0.92,3,7,0.93,no,
2958,"WELL OF SH. BHURA RAM, KHETRI NGAR, JHUNJHUNU",28.072384,75.82289,Jaipur,RAJASTHAN,30.0,7.3,7.3,4200,1.66,9,85,1.37,yes,
2959,"WELL OF SH. BRIJA RAM, KHETRI NAGAR, JHUNJHUNU",28.072384,75.82289,Jaipur,RAJASTHAN,30.7,7.4,7.4,4350,0.99,7,28,1.19,yes,
2960,"WELL INFRONT OF SINGHANA POLICE STATION, SINGHANA, JHUNJHUNU",28.072384,75.82289,Jaipur,RAJASTHAN,30.4,7.4,7.4,3850,0.28,4,14,1.28,yes,
2961,"WELL OF SH MNAGAL CHAND MEENA, MANPUR MACHERI, JAIPUR",27.1981016,75.881486,Jaipur,RAJASTHAN,30.5,8.4,8.4,1285,2.73,4,9,0.57,no,
2962,"WELL OF SH MOOL CHAND RAIGER, MANPUR MACHERI, JAIPUR",27.1981016,75.881486,Jaipur,RAJASTHAN,31.0,8.1,8.1,735,1.01,3,7,0.5,no,
2963,"WELL OF RIICO AT LEATHER COMPLEX, MANPUR MACHERI, JAIPUR",27.1981016,75.881486,Jaipur,RAJASTHAN,30.5,8.1,8.1,585,1.38,4,6,0.46,no,
2964,"WELL AT INDIA PUBLIC SCHOOL, MANPUR MACHERI, JAIPUR",27.1981016,75.881486,Jaipur,RAJASTHAN,30.0,8.0,8.0,725,0.64,4,6,0.51,yes,
2965,"SHRI GIRDHARI SINGH CHOUDHARY NEAR BANDI RIVER BRIDGE, PALI BYE PASS ROAD, PALI",25.7577094,73.3486765,Jaipur,RAJASTHAN,24.0,8.0,8.0,11650,0.91,6,1205,1.42,yes,
2966,"SHRI GIRDHARI SINGH RAJPUROHIT NEAR VILLAGE PUNAYATA, JODHPUR- SUMERPUR BYE PASS ROAD, PALI",26.220405,26.220405,Jaipur,RAJASTHAN,26.5,8.3,8.3,2820,0.76,4,11,1.31,no,
2967,"SH. POL SINGH PUROHIT, VILLAGE PUNAYATA, PALI",25.7698722,73.3104419,Jaipur,RAJASTHAN,26.0,8.1,8.1,8850,0.45,8,21,1.21,no,
2968,"SH. BHANA RAM KALAL, DHARU NAGAR, NEAR MAIN MANDIA ROAD, OPP. VILLAGE MANDIA, PALI",25.7574511,73.2780103,Jaipur,RAJASTHAN,27.0,8.3,8.3,7900,0.58,6,110,2.96,no,
2969,"M/S SPECIALTY SILICA LTD., MIA ALWAR AGRO FOOD PARK, ALWAR",27.4988735,76.7020164,Jaipur,RAJASTHAN,32.0,7.2,7.2,880,0.78,4,14,0.4,yes,
2970,"RIICO TUBE WELL, RIA, BEHROR",28.0,76.0,Jaipur,RAJASTHAN,30.7,7.6,7.6,1627,0.22,3,4,0.92,yes,
2971,"RIICO TUBE WELL, RIA, NEEMRANA ",27.8786827,76.281181,Jaipur,RAJASTHAN,31.5,7.3,7.3,1770,0.26,3,5,0.88,yes,
2972,"RIICO TUBE WELL, RIA, SOTANALA",27.8867159,76.2833915,Jaipur,RAJASTHAN,30.0,8.1,8.1,2400,0.3,3,4,1.1,no,
2973,"RIICO TUBE WELL, RIA, SHAHJAHANPUR",27.883744,79.912245,Jaipur,RAJASTHAN,30.0,7.3,7.3,3280,0.24,3,7,0.81,yes,
2974,"VILLAGE AGYARA, TEHSIL- RAMGARH, ALWAR",27.5682014,76.6057707,Jaipur,RAJASTHAN,29.0,7.6,7.6,860,0.32,4,5,1.13,yes,
2975,"VILLAGE BAGER MEO, TEHSIL- RAMGARH, ALWAR ",27.52657,76.75096,Jaipur,RAJASTHAN,28.5,7.3,7.3,2530,0.15,4,5,1.06,yes,
2976,"SUJAN GANGA, BHARATPUR",27.2183143,77.4933194,Jaipur,RAJASTHAN,26.0,7.7,7.7,5400,0.46,4,14,0.96,yes,
2977,"WELL OF RAM CHANDRA DEWRA, VILLAGE- SANGARIA, JODHPUR ",26.1981113,73.0047082,Jaipur,RAJASTHAN,24.1,7.7,7.7,18300,0.38,4,11,2.12,yes,
2982,"WELL OF BIRMA RAM PATEL, SALAWAS, JODHPUR ",26.1298634,72.9992012,Jaipur,RAJASTHAN,21.6,7.7,7.7,7200,0.35,4,12,1.56,yes,
2985,"WELL OF GIRDHARI RAM MEGHWAL, VILLAGE- NANDWAN, JODHPUR",26.1187737,72.9785352,Jaipur,RAJASTHAN,21.9,7.3,7.3,14200,0.22,4,11,1.05,yes,
2986,"TUBE WELL OF GIRDHARI LAL, BHITUJA ",25.8136638,72.2896708,Jaipur,RAJASTHAN,28.5,7.7,7.7,10100,0.22,4,15,1.36,yes,
2987,"CWR OF PHED, BHITUJA ",25.8136638,72.2896708,Jaipur,RAJASTHAN,28.5,7.4,7.4,8150,0.26,4,79,1.34,yes,
2988,"WELL OF PEMA RAM MALI, BHITUJA ",25.8136638,72.2896708,Jaipur,RAJASTHAN,27.5,6.7,6.7,9600,0.22,6,112,1.31,yes,
2989,"WELL OF BABULAL UKKAD JI MALI, SAKARNA BERA, BALOTRA, , JODHPUR ",26.235353,73.009632,Jaipur,RAJASTHAN,28.5,7.6,7.6,13200,0.08,3,6,1.48,yes,
2990,"WELL OF BHIKSINGH S/O AMAR SINGH PUROHIT, SAKARNA BERA, BALOTRA, JODHPUR ",26.235353,73.009632,Jaipur,RAJASTHAN,28.5,7.4,7.4,9450,0.16,4,21,1.26,yes,
2991,"WELL OF BHAG JI LAXMAN RAM MALI, SAKARNA BERA, BALOTRA, JODHPUR ",26.235353,73.009632,Jaipur,RAJASTHAN,28.0,7.7,7.7,11650,0.19,6,17,1.4,yes,
2993,"WELL OF CHOUTHA RAM PUSA PAM, LEFT SIDE OF BRIDGE LUNI, BALOTRA",26.235353,73.009632,Jaipur,RAJASTHAN,27.0,7.4,7.4,21500,0.08,4,15,1.48,yes,
2997,"TUBE WELL OF M/S P. PARIHAR IDUSTRIES, JASOL ",25.8146939,72.206768,Jaipur,RAJASTHAN,28.0,7.4,7.4,2300,0.08,4,10,1.3,yes,
3000,"BORE WELL SH. UMESH KUMAR S/O SH. HORIDWARI RAM 3A-16 UIT, BHUTIJA ",25.8146939,72.206768,Jaipur,RAJASTHAN,29.0,8.2,8.2,3200,0.15,3,4,0.4,no,
3001,"BORE WELL  SH. BHRAM JEET SERVICE STATION, BHIWADI ",28.2088218,76.8445999,Jaipur,RAJASTHAN,28.5,7.7,7.7,1810,0.14,4,9,0.92,yes,
3002,"BORE WELL M/S R.C. PALACE HOTEL, BHIWADI",28.2088218,76.8445999,Jaipur,RAJASTHAN,28.5,8.2,8.2,930,4.69,3,4,1.04,no,
3004,"BORE WELL OF M/S MODERN PUBLIC SCHOOL, BHIWADI",28.2088218,76.8445999,Jaipur,RAJASTHAN,30.0,8.5,8.5,1015,1.03,3,6,0.64,no,
3006,"HAND PUMP NEAR NEVTA TIRAHA, NEVTA DAM, SANGANER, JAIPUR",26.8061453,75.7669261,Jaipur,RAJASTHAN,27.5,8.4,8.4,1505,0.53,3,4,1.41,no,
2477,NEAR ARYA KANYA INTER COLLEGE. JALAUN,26.1270922,79.4703885,Lucknow,UTTAR PRADESH,20.8,7.8,7.8,1300,0.39,,,,yes,
1736,GW QUALITY STATION CAPTANGANJ,26.9270041,83.7137222,Lucknow,UTTAR PRADESH,25.5,6.9,6.9,1074,,50,140,,yes,
1737,GW QUALITY STATION CAPTANGANJ,26.9270041,83.7137222,Lucknow,UTTAR PRADESH,24.5,6.9,6.9,892,3.85,25,60,,yes,
1738,"SITE 1, INDUSTRIAL AREA NEAR M/S WOODWARM CHEMICAL LTD., UNNAO",26.539345,80.48782,Lucknow,UTTAR PRADESH,,7.5,7.5,989,3.77,2,2,1.6,yes,
